{
    "type": "FeatureCollection",
    "features": [
        {
            "type": "Feature",
            "properties": {
                "code": "21201805100001",
                "name": "私立權穎國際有限公司附設豐悅文理短期補習班",
                "county": "新北市",
                "class": "文理類,",
                "students": "小學、國中、高中,不限年齡"
            },
            "geometry": {
                "type": "Point",
                "coordinates": [
                    121.453294,
                    25.036534
                ]
            }
        },
        {
            "type": "Feature",
            "properties": {
                "code": "21201805100003",
                "name": "私立毅果文理短期補習班",
                "county": "新北市",
                "class": "文理類,",
                "students": "不限年齡(A班19人、B班15人、C班15人、D班9人),國小、國中(A班15人、B班9人)"
            },
            "geometry": {
                "type": "Point",
                "coordinates": [
                    121.371911,
                    25.080998
                ]
            }
        },
        {
            "type": "Feature",
            "properties": {
                "code": "21201805140001",
                "name": "私立永正文理短期補習班",
                "county": "新北市",
                "class": "文理類,",
                "students": "不限年齡,不限年齡(A、B班41人、C、D班26人、E、F班25人)"
            },
            "geometry": {
                "type": "Point",
                "coordinates": [
                    121.514763,
                    24.996632
                ]
            }
        },
        {
            "type": "Feature",
            "properties": {
                "code": "21201805150001",
                "name": "私立同學贊技藝文理短期補習班",
                "county": "新北市",
                "class": "文理類,美術、書法、攝影、美工設計、圍棋類,",
                "students": "國小以上"
            },
            "geometry": {
                "type": "Point",
                "coordinates": [
                    121.457375,
                    25.085118
                ]
            }
        },
        {
            "type": "Feature",
            "properties": {
                "code": "21201805150002",
                "name": "勤朗文理短期補習班",
                "county": "新北市",
                "class": "文理類,",
                "students": "國小,國中"
            },
            "geometry": {
                "type": "Point",
                "coordinates": [
                    121.458511,
                    25.086355
                ]
            }
        },
        {
            "type": "Feature",
            "properties": {
                "code": "21201805160001",
                "name": "私立飛舞空間技藝短期補習班",
                "county": "新北市",
                "class": "音樂、舞蹈類,",
                "students": "一般大眾"
            },
            "geometry": {
                "type": "Point",
                "coordinates": [
                    121.376638,
                    24.944859
                ]
            }
        },
        {
            "type": "Feature",
            "properties": {
                "code": "21201805160002",
                "name": "私立鴻文文理短期補習班",
                "county": "新北市",
                "class": "文理類,",
                "students": "國中,國小"
            },
            "geometry": {
                "type": "Point",
                "coordinates": [
                    121.420427,
                    25.029575
                ]
            }
        },
        {
            "type": "Feature",
            "properties": {
                "code": "21201805170001",
                "name": "私立L.Ant小螞蟻文理短期補習班",
                "county": "新北市",
                "class": "文理類,",
                "students": "國小、國中,國中"
            },
            "geometry": {
                "type": "Point",
                "coordinates": [
                    121.481035,
                    24.997274
                ]
            }
        },
        {
            "type": "Feature",
            "properties": {
                "code": "21201805170002",
                "name": "私立築科文教事業有限公司附設築科文理短期補習班",
                "county": "新北市",
                "class": "文理類,",
                "students": "不限年齡"
            },
            "geometry": {
                "type": "Point",
                "coordinates": [
                    121.664295,
                    25.065111
                ]
            }
        },
        {
            "type": "Feature",
            "properties": {
                "code": "21201805170003",
                "name": "私立巨鼎國際數位科技有限公司附設明鼎文理短期補習班",
                "county": "新北市",
                "class": "文理類,",
                "students": "小學、國中、高中,不限年齡"
            },
            "geometry": {
                "type": "Point",
                "coordinates": [
                    121.469329,
                    25.026277
                ]
            }
        },
        {
            "type": "Feature",
            "properties": {
                "code": "21201805230001",
                "name": "私立吾思有限公司附設吾思精緻文理短期補習班",
                "county": "新北市",
                "class": "文理類,",
                "students": "國中"
            },
            "geometry": {
                "type": "Point",
                "coordinates": [
                    121.519885,
                    25.010147
                ]
            }
        },
        {
            "type": "Feature",
            "properties": {
                "code": "21201805240001",
                "name": "私立書耕文理短期補習班",
                "county": "新北市",
                "class": "文理類,",
                "students": "國小、國中、高中"
            },
            "geometry": {
                "type": "Point",
                "coordinates": [
                    121.444744,
                    25.053985
                ]
            }
        },
        {
            "type": "Feature",
            "properties": {
                "code": "21201805240002",
                "name": "私立杰生文理短期補習班",
                "county": "新北市",
                "class": "文理類,",
                "students": "國小"
            },
            "geometry": {
                "type": "Point",
                "coordinates": [
                    121.51782,
                    25.012398
                ]
            }
        },
        {
            "type": "Feature",
            "properties": {
                "code": "21201806020001",
                "name": "私立翔舞舞蹈短期補習班",
                "county": "新北市",
                "class": "音樂、舞蹈類,",
                "students": "不限年齡(A班35人、B班25人)"
            },
            "geometry": {
                "type": "Point",
                "coordinates": [
                    121.495942,
                    25.005123
                ]
            }
        },
        {
            "type": "Feature",
            "properties": {
                "code": "21201806110001",
                "name": "私立李鑫數學文理短期補習班",
                "county": "新北市",
                "class": "文理類,",
                "students": "國小以上"
            },
            "geometry": {
                "type": "Point",
                "coordinates": [
                    121.465059,
                    25.018502
                ]
            }
        },
        {
            "type": "Feature",
            "properties": {
                "code": "21201806110002",
                "name": "私立馨和文理技藝短期補習班",
                "county": "新北市",
                "class": "文理類,美術、書法、攝影、美工設計、圍棋類,",
                "students": "不限年齡"
            },
            "geometry": {
                "type": "Point",
                "coordinates": [
                    121.537662,
                    24.976617
                ]
            }
        },
        {
            "type": "Feature",
            "properties": {
                "code": "21201806120001",
                "name": "私立民生文理短期補習班",
                "county": "新北市",
                "class": "文理類,",
                "students": "7-15歲"
            },
            "geometry": {
                "type": "Point",
                "coordinates": [
                    121.452749,
                    25.045715
                ]
            }
        },
        {
            "type": "Feature",
            "properties": {
                "code": "21201806260002",
                "name": "私立英普文理短期補習班",
                "county": "新北市",
                "class": "文理類,",
                "students": "國小、國中(A班12人、B班11人),國小、國中(A班11人、B班10人)"
            },
            "geometry": {
                "type": "Point",
                "coordinates": [
                    121.445395,
                    25.18488
                ]
            }
        },
        {
            "type": "Feature",
            "properties": {
                "code": "21201806300001",
                "name": "三民唐吉君文理短期補習班",
                "county": "新北市",
                "class": "文理類,",
                "students": "不限年齡"
            },
            "geometry": {
                "type": "Point",
                "coordinates": [
                    121.484533,
                    25.064381
                ]
            }
        },
        {
            "type": "Feature",
            "properties": {
                "code": "21201807030001",
                "name": "私立優適文教文理短期補習班",
                "county": "新北市",
                "class": "文理類,",
                "students": "不限年齡"
            },
            "geometry": {
                "type": "Point",
                "coordinates": [
                    121.444851,
                    25.042529
                ]
            }
        },
        {
            "type": "Feature",
            "properties": {
                "code": "21201807120002",
                "name": "私立鼐鍶科學教育文理技藝短期補習班",
                "county": "新北市",
                "class": "文理類,商類：珠算、心算、會計,",
                "students": "國小以上(國文1小時、英文2小時、數學1小時、理化2小時),國小以上"
            },
            "geometry": {
                "type": "Point",
                "coordinates": [
                    121.52224,
                    25.001449
                ]
            }
        },
        {
            "type": "Feature",
            "properties": {
                "code": "21201807160001",
                "name": "私立靜禾文理技藝短期補習班",
                "county": "新北市",
                "class": "文理類,音樂、舞蹈類,美術、書法、攝影、美工設計、圍棋類,",
                "students": "不限(A班15人、B班17人),國小~高中(A班22人、B班17人),不限(A班17人、B班15人)"
            },
            "geometry": {
                "type": "Point",
                "coordinates": [
                    121.458841,
                    25.027407
                ]
            }
        },
        {
            "type": "Feature",
            "properties": {
                "code": "21201807190001",
                "name": "私立茁悅英采文理技藝短期補習班",
                "county": "新北市",
                "class": "文理類,美術、書法、攝影、美工設計、圍棋類,",
                "students": "國小以上(A班21人、B班11人),其他"
            },
            "geometry": {
                "type": "Point",
                "coordinates": [
                    121.46486,
                    24.988453
                ]
            }
        },
        {
            "type": "Feature",
            "properties": {
                "code": "21201807190002",
                "name": "私立齊德文理短期補習班",
                "county": "新北市",
                "class": "文理類,",
                "students": "國小以上"
            },
            "geometry": {
                "type": "Point",
                "coordinates": [
                    121.859371,
                    25.038197
                ]
            }
        },
        {
            "type": "Feature",
            "properties": {
                "code": "21201807260001",
                "name": "私立高博文理短期補習班",
                "county": "新北市",
                "class": "文理類,",
                "students": "國中以上"
            },
            "geometry": {
                "type": "Point",
                "coordinates": [
                    121.424753,
                    25.023841
                ]
            }
        },
        {
            "type": "Feature",
            "properties": {
                "code": "21201808060001",
                "name": "私立弘喬文理短期補習班",
                "county": "新北市",
                "class": "文理類,",
                "students": "不限年齡(國語2小時、英語7小時、數學2小時、自然2小時、社會2小時)"
            },
            "geometry": {
                "type": "Point",
                "coordinates": [
                    121.428319,
                    25.051801
                ]
            }
        },
        {
            "type": "Feature",
            "properties": {
                "code": "21201808070001",
                "name": "私立炫豆豆文理技藝短期補習班",
                "county": "新北市",
                "class": "文理類,",
                "students": "不限年齡"
            },
            "geometry": {
                "type": "Point",
                "coordinates": [
                    121.541096,
                    24.967167
                ]
            }
        },
        {
            "type": "Feature",
            "properties": {
                "code": "21201808140001",
                "name": "私立青樺學成文理短期補習班",
                "county": "新北市",
                "class": "文理類,",
                "students": "國小以上"
            },
            "geometry": {
                "type": "Point",
                "coordinates": [
                    121.429661,
                    25.051714
                ]
            }
        },
        {
            "type": "Feature",
            "properties": {
                "code": "21201808140002",
                "name": "私立積木技藝文理短期補習班",
                "county": "新北市",
                "class": "文理類,商類：珠算、心算、會計,",
                "students": "國小以上"
            },
            "geometry": {
                "type": "Point",
                "coordinates": [
                    121.446291,
                    25.183837
                ]
            }
        },
        {
            "type": "Feature",
            "properties": {
                "code": "21201808150001",
                "name": "私立弦昕音樂技藝短期補習班",
                "county": "新北市",
                "class": "音樂、舞蹈類,",
                "students": "不限年齡"
            },
            "geometry": {
                "type": "Point",
                "coordinates": [
                    121.478654,
                    25.014866
                ]
            }
        },
        {
            "type": "Feature",
            "properties": {
                "code": "21201808210001",
                "name": "私立陽光森林文教股份有限公司附設光復文理短期補習班",
                "county": "新北市",
                "class": "文理類,",
                "students": "不限年齡(A、B班各17人、C、D班各17人、E、F班各24人、G、H班各25人、I、J班各23人)"
            },
            "geometry": {
                "type": "Point",
                "coordinates": [
                    121.479069,
                    25.017654
                ]
            }
        },
        {
            "type": "Feature",
            "properties": {
                "code": "21201808210002",
                "name": "私立新馨心有限公司附設新馨心文理短期補習班",
                "county": "新北市",
                "class": "文理類,",
                "students": "不現年齡"
            },
            "geometry": {
                "type": "Point",
                "coordinates": [
                    121.661924,
                    25.063927
                ]
            }
        },
        {
            "type": "Feature",
            "properties": {
                "code": "21201808230001",
                "name": "私立國儷文理短期補習班",
                "county": "新北市",
                "class": "文理類,",
                "students": "不限年齡,學齡前"
            },
            "geometry": {
                "type": "Point",
                "coordinates": [
                    121.48456,
                    25.01276
                ]
            }
        },
        {
            "type": "Feature",
            "properties": {
                "code": "21201808290001",
                "name": "私立奧昇文理短期補習班",
                "county": "新北市",
                "class": "文理類,",
                "students": "不限年齡(A班27人、B班16人)"
            },
            "geometry": {
                "type": "Point",
                "coordinates": [
                    121.469154,
                    25.085445
                ]
            }
        },
        {
            "type": "Feature",
            "properties": {
                "code": "21201808300001",
                "name": "私立三連音音樂技藝短期補習班",
                "county": "新北市",
                "class": "音樂、舞蹈類,",
                "students": "不限年齡"
            },
            "geometry": {
                "type": "Point",
                "coordinates": [
                    121.373807,
                    25.077895
                ]
            }
        },
        {
            "type": "Feature",
            "properties": {
                "code": "21201808300002",
                "name": "科揚文理短期補習班",
                "county": "新北市",
                "class": "文理類,",
                "students": "不限年齡"
            },
            "geometry": {
                "type": "Point",
                "coordinates": [
                    121.659621,
                    25.067273
                ]
            }
        },
        {
            "type": "Feature",
            "properties": {
                "code": "21201809020001",
                "name": "私立瑞齡教育有限公司附設瑞齡文理短期補習班",
                "county": "新北市",
                "class": "文理類,",
                "students": "不限年齡(A班11人、B班10人)"
            },
            "geometry": {
                "type": "Point",
                "coordinates": [
                    121.543709,
                    24.972273
                ]
            }
        },
        {
            "type": "Feature",
            "properties": {
                "code": "21201809060001",
                "name": "私立四季小鹿文理技藝短期補習班",
                "county": "新北市",
                "class": "文理類,",
                "students": "不限年齡"
            },
            "geometry": {
                "type": "Point",
                "coordinates": [
                    121.463404,
                    25.054393
                ]
            }
        },
        {
            "type": "Feature",
            "properties": {
                "code": "21201809070001",
                "name": "私立凱宸文理短期補習班",
                "county": "新北市",
                "class": "文理類,",
                "students": "國小、國中(A班41人、B班15人)"
            },
            "geometry": {
                "type": "Point",
                "coordinates": [
                    121.502872,
                    25.25662
                ]
            }
        },
        {
            "type": "Feature",
            "properties": {
                "code": "21201809070002",
                "name": "私立暘谷興業有限公司附設南暘文理短期補習班",
                "county": "新北市",
                "class": "文理類,",
                "students": "不限年齡"
            },
            "geometry": {
                "type": "Point",
                "coordinates": [
                    121.463679,
                    25.081613
                ]
            }
        },
        {
            "type": "Feature",
            "properties": {
                "code": "21201809120001",
                "name": "私立勝路易文理短期補習班",
                "county": "新北市",
                "class": "文理類,",
                "students": "國小至成人"
            },
            "geometry": {
                "type": "Point",
                "coordinates": [
                    121.510643,
                    24.984238
                ]
            }
        },
        {
            "type": "Feature",
            "properties": {
                "code": "21201809120002",
                "name": "私立興德文理短期補習班",
                "county": "新北市",
                "class": "文理類,",
                "students": "幼兒至成人"
            },
            "geometry": {
                "type": "Point",
                "coordinates": [
                    121.545569,
                    24.971022
                ]
            }
        },
        {
            "type": "Feature",
            "properties": {
                "code": "21201809180002",
                "name": "私立中國青年救國團附設板慶文理技藝短期補習班",
                "county": "新北市",
                "class": "文理類,家政、插花、烹飪類,音樂、舞蹈類,美術、書法、攝影、美工設計、圍棋類,瑜珈類,",
                "students": "不限年齡"
            },
            "geometry": {
                "type": "Point",
                "coordinates": [
                    121.461841,
                    25.006454
                ]
            }
        },
        {
            "type": "Feature",
            "properties": {
                "code": "21201809200001",
                "name": "首碼有限公司附設私立明康文理短期補習班",
                "county": "新北市",
                "class": "文理類,",
                "students": "國小、國中、高中"
            },
            "geometry": {
                "type": "Point",
                "coordinates": [
                    121.50921,
                    25.012763
                ]
            }
        },
        {
            "type": "Feature",
            "properties": {
                "code": "21201809210001",
                "name": "私立育民法商文理短期補習班",
                "county": "新北市",
                "class": "文理類,",
                "students": "高中~成人"
            },
            "geometry": {
                "type": "Point",
                "coordinates": [
                    121.460843,
                    25.007197
                ]
            }
        },
        {
            "type": "Feature",
            "properties": {
                "code": "21201809280001",
                "name": "私立糖果屋文理技藝短期補習班",
                "county": "新北市",
                "class": "文理類,音樂、舞蹈類,美術、書法、攝影、美工設計、圍棋類,",
                "students": "不限年齡"
            },
            "geometry": {
                "type": "Point",
                "coordinates": [
                    121.519017,
                    25.007698
                ]
            }
        },
        {
            "type": "Feature",
            "properties": {
                "code": "21201810040001",
                "name": "私立知新文理短期補習班",
                "county": "新北市",
                "class": "文理類,",
                "students": "不限年齡"
            },
            "geometry": {
                "type": "Point",
                "coordinates": [
                    121.458819,
                    25.02092
                ]
            }
        },
        {
            "type": "Feature",
            "properties": {
                "code": "21201810160001",
                "name": "私立松林文理短期補習班",
                "county": "新北市",
                "class": "文理類,",
                "students": "國小、國中"
            },
            "geometry": {
                "type": "Point",
                "coordinates": [
                    121.445666,
                    25.187169
                ]
            }
        },
        {
            "type": "Feature",
            "properties": {
                "code": "21201810160002",
                "name": "私立宏韋文理短期補習班",
                "county": "新北市",
                "class": "文理類,",
                "students": "國中以上"
            },
            "geometry": {
                "type": "Point",
                "coordinates": [
                    121.444674,
                    25.043172
                ]
            }
        },
        {
            "type": "Feature",
            "properties": {
                "code": "21201810180001",
                "name": "私立潔式文理短期補習班",
                "county": "新北市",
                "class": "文理類,",
                "students": "不限年齡"
            },
            "geometry": {
                "type": "Point",
                "coordinates": [
                    121.426965,
                    24.985429
                ]
            }
        },
        {
            "type": "Feature",
            "properties": {
                "code": "21201810210001",
                "name": "私立正人文理短期補習班",
                "county": "新北市",
                "class": "文理類,",
                "students": "不限"
            },
            "geometry": {
                "type": "Point",
                "coordinates": [
                    121.431425,
                    25.053294
                ]
            }
        },
        {
            "type": "Feature",
            "properties": {
                "code": "21201810210002",
                "name": "私立貓頭鷹學堂文理短期補習班",
                "county": "新北市",
                "class": "文理類,",
                "students": "國小"
            },
            "geometry": {
                "type": "Point",
                "coordinates": [
                    121.447038,
                    25.170629
                ]
            }
        },
        {
            "type": "Feature",
            "properties": {
                "code": "21201810250001",
                "name": "私立翊華集賢文理技藝短期補習班",
                "county": "新北市",
                "class": "文理類,資訊類,",
                "students": "6歲以上,國小、國中"
            },
            "geometry": {
                "type": "Point",
                "coordinates": [
                    121.486712,
                    25.088978
                ]
            }
        },
        {
            "type": "Feature",
            "properties": {
                "code": "21201810250002",
                "name": "私立珈群教育文理短期補習班",
                "county": "新北市",
                "class": "文理類,",
                "students": "國中、高中"
            },
            "geometry": {
                "type": "Point",
                "coordinates": [
                    121.502045,
                    24.992742
                ]
            }
        },
        {
            "type": "Feature",
            "properties": {
                "code": "21201810300002",
                "name": "私立禾恩藝術音樂短期補習班",
                "county": "新北市",
                "class": "音樂、舞蹈類,",
                "students": "不限年齡"
            },
            "geometry": {
                "type": "Point",
                "coordinates": [
                    121.537008,
                    24.974917
                ]
            }
        },
        {
            "type": "Feature",
            "properties": {
                "code": "21201811010001",
                "name": "私立碁礪文理短期補習班",
                "county": "新北市",
                "class": "文理類,",
                "students": "國小~高中"
            },
            "geometry": {
                "type": "Point",
                "coordinates": [
                    121.368915,
                    25.07053
                ]
            }
        },
        {
            "type": "Feature",
            "properties": {
                "code": "21201811060001",
                "name": "私立成鴻文理技藝短期補習班",
                "county": "新北市",
                "class": "文理類,",
                "students": "不限年齡"
            },
            "geometry": {
                "type": "Point",
                "coordinates": [
                    121.419209,
                    24.98973
                ]
            }
        },
        {
            "type": "Feature",
            "properties": {
                "code": "21201811080001",
                "name": "私立北大征峰文理短期補習班",
                "county": "新北市",
                "class": "文理類,",
                "students": "國小、國中、高中(3班各21人、5人、5人)"
            },
            "geometry": {
                "type": "Point",
                "coordinates": [
                    121.378015,
                    24.94882
                ]
            }
        },
        {
            "type": "Feature",
            "properties": {
                "code": "21201811130001",
                "name": "私立口袋大象榮富文理短期補習班",
                "county": "新北市",
                "class": "文理類,",
                "students": "不限年齡"
            },
            "geometry": {
                "type": "Point",
                "coordinates": [
                    121.447534,
                    25.050476
                ]
            }
        },
        {
            "type": "Feature",
            "properties": {
                "code": "21201811130002",
                "name": "私立快樂城堡文理技藝短期補習班",
                "county": "新北市",
                "class": "文理類,美術、書法、攝影、美工設計、圍棋類,",
                "students": "不限,國中,國小"
            },
            "geometry": {
                "type": "Point",
                "coordinates": [
                    121.450729,
                    25.098904
                ]
            }
        },
        {
            "type": "Feature",
            "properties": {
                "code": "21201811150001",
                "name": "私立維肯文理短期補習班",
                "county": "新北市",
                "class": "文理類,",
                "students": "不限年齡"
            },
            "geometry": {
                "type": "Point",
                "coordinates": [
                    121.359385,
                    25.071353
                ]
            }
        },
        {
            "type": "Feature",
            "properties": {
                "code": "21201811180001",
                "name": "私立百珂文理短期補習班",
                "county": "新北市",
                "class": "文理類,",
                "students": "國小以上,國小以上(A班12人、B班15人)"
            },
            "geometry": {
                "type": "Point",
                "coordinates": [
                    121.472041,
                    25.091723
                ]
            }
        },
        {
            "type": "Feature",
            "properties": {
                "code": "21201811190001",
                "name": "私立快樂陽光文理短期補習班",
                "county": "新北市",
                "class": "文理類,",
                "students": "國小~國中(A班20人、B班15人)"
            },
            "geometry": {
                "type": "Point",
                "coordinates": [
                    121.491218,
                    25.072229
                ]
            }
        },
        {
            "type": "Feature",
            "properties": {
                "code": "21201811200001",
                "name": "私立維新文化有限公司附設宥成文理短期補習班",
                "county": "新北市",
                "class": "文理類,",
                "students": "國小、國中、高中"
            },
            "geometry": {
                "type": "Point",
                "coordinates": [
                    121.37163,
                    25.070228
                ]
            }
        },
        {
            "type": "Feature",
            "properties": {
                "code": "21201811220001",
                "name": "奇異鳥實業有限公司附設私立卡爾維爾文理技藝短期補習班",
                "county": "新北市",
                "class": "文理類,外語類,音樂、舞蹈類,美術、書法、攝影、美工設計、圍棋類,",
                "students": "不限年齡"
            },
            "geometry": {
                "type": "Point",
                "coordinates": [
                    121.371511,
                    25.071512
                ]
            }
        },
        {
            "type": "Feature",
            "properties": {
                "code": "21201811220002",
                "name": "私立畫匣子藝術美術短期補習班",
                "county": "新北市",
                "class": "美術、書法、攝影、美工設計、圍棋類,",
                "students": "不限年齡"
            },
            "geometry": {
                "type": "Point",
                "coordinates": [
                    121.445592,
                    25.186039
                ]
            }
        },
        {
            "type": "Feature",
            "properties": {
                "code": "21201811220003",
                "name": "私立誠蹊廣告企劃有限公司附設誠蹊文理短期補習班",
                "county": "新北市",
                "class": "文理類,",
                "students": "國小、國中、高中"
            },
            "geometry": {
                "type": "Point",
                "coordinates": [
                    121.381489,
                    24.94895
                ]
            }
        },
        {
            "type": "Feature",
            "properties": {
                "code": "21201811270001",
                "name": "私立美育旺旺文化事業股份有限公司附設小飛馬音樂舞蹈技藝短期補習班",
                "county": "新北市",
                "class": "音樂、舞蹈類,",
                "students": "不限年齡"
            },
            "geometry": {
                "type": "Point",
                "coordinates": [
                    121.460122,
                    25.007961
                ]
            }
        },
        {
            "type": "Feature",
            "properties": {
                "code": "21201811280001",
                "name": "私立中國青年救國團附設樹興文理技藝短期補習班",
                "county": "新北市",
                "class": "文理類,資訊類,家政、插花、烹飪類,縫紉類,音樂、舞蹈類,美術、書法、攝影、美工設計、圍棋類,瑜珈類,",
                "students": "不限年齡"
            },
            "geometry": {
                "type": "Point",
                "coordinates": [
                    121.42066,
                    24.987031
                ]
            }
        },
        {
            "type": "Feature",
            "properties": {
                "code": "21201811290001",
                "name": "私立員山文理短期補習班",
                "county": "新北市",
                "class": "文理類,",
                "students": "不限年齡(各24人、24人、22人、22人、21人、21人、23人、23人、29人、29人、26人、26人),國中以上"
            },
            "geometry": {
                "type": "Point",
                "coordinates": [
                    121.480703,
                    24.994865
                ]
            }
        },
        {
            "type": "Feature",
            "properties": {
                "code": "21201811290002",
                "name": "私立高點教育科技股份有限公司附設淡江高點文理短期補習班",
                "county": "新北市",
                "class": "文理類,",
                "students": "成人(18歲以上)"
            },
            "geometry": {
                "type": "Point",
                "coordinates": [
                    121.448684,
                    25.177893
                ]
            }
        },
        {
            "type": "Feature",
            "properties": {
                "code": "21201812080002",
                "name": "私立好好壹號文理短期補習班",
                "county": "新北市",
                "class": "文理類,",
                "students": "國小,國中、高中"
            },
            "geometry": {
                "type": "Point",
                "coordinates": [
                    121.423942,
                    25.02398
                ]
            }
        },
        {
            "type": "Feature",
            "properties": {
                "code": "21201812180001",
                "name": "私立博思文理短期補習班",
                "county": "新北市",
                "class": "文理類,",
                "students": "國中"
            },
            "geometry": {
                "type": "Point",
                "coordinates": [
                    121.422264,
                    24.982633
                ]
            }
        },
        {
            "type": "Feature",
            "properties": {
                "code": "21201812180002",
                "name": "私立喜博文理短期補習班",
                "county": "新北市",
                "class": "文理類,",
                "students": "國小"
            },
            "geometry": {
                "type": "Point",
                "coordinates": [
                    121.428354,
                    24.986232
                ]
            }
        },
        {
            "type": "Feature",
            "properties": {
                "code": "21201812220001",
                "name": "私立惠文民安文理技藝短期補習班",
                "county": "新北市",
                "class": "文理類,音樂、舞蹈類,",
                "students": "不限年齡(切結)"
            },
            "geometry": {
                "type": "Point",
                "coordinates": [
                    121.427453,
                    25.023263
                ]
            }
        },
        {
            "type": "Feature",
            "properties": {
                "code": "21201812220002",
                "name": "私立迪生文理短期補習班",
                "county": "新北市",
                "class": "文理類,",
                "students": "不限年齡"
            },
            "geometry": {
                "type": "Point",
                "coordinates": [
                    121.453233,
                    24.981819
                ]
            }
        },
        {
            "type": "Feature",
            "properties": {
                "code": "21201812220004",
                "name": "私立北大小學堂文理短期補習班",
                "county": "新北市",
                "class": "文理類,",
                "students": "不限年齡(A班14人、B班15人)"
            },
            "geometry": {
                "type": "Point",
                "coordinates": [
                    121.661066,
                    25.063043
                ]
            }
        },
        {
            "type": "Feature",
            "properties": {
                "code": "21201901170002",
                "name": "私立渠禾文理短期補習班",
                "county": "新北市",
                "class": "文理類,",
                "students": "國小、國中、高中"
            },
            "geometry": {
                "type": "Point",
                "coordinates": [
                    121.470487,
                    25.006681
                ]
            }
        },
        {
            "type": "Feature",
            "properties": {
                "code": "21201901180001",
                "name": "私立克米烘焙短期補習班",
                "county": "新北市",
                "class": "家政、插花、烹飪類,",
                "students": "不限年齡"
            },
            "geometry": {
                "type": "Point",
                "coordinates": [
                    121.460267,
                    25.013947
                ]
            }
        },
        {
            "type": "Feature",
            "properties": {
                "code": "21201901190001",
                "name": "私立林恩文理技藝短期補習班",
                "county": "新北市",
                "class": "文理類,音樂、舞蹈類,美術、書法、攝影、美工設計、圍棋類,",
                "students": "不限年齡(A班17人、B班10人、C班18人、D班14人、E班7人、F班17人、G班10人、H班18人),不限年齡(O班18人、P班18人),不限年齡(K班17人、L班18人),不限年齡(M班17人、N班18人)"
            },
            "geometry": {
                "type": "Point",
                "coordinates": [
                    121.540234,
                    24.986868
                ]
            }
        },
        {
            "type": "Feature",
            "properties": {
                "code": "21201901210001",
                "name": "私立揚信股份有限公司附設陳逸文理短期補習班",
                "county": "新北市",
                "class": "文理類,",
                "students": "國小以上"
            },
            "geometry": {
                "type": "Point",
                "coordinates": [
                    121.380433,
                    25.073958
                ]
            }
        },
        {
            "type": "Feature",
            "properties": {
                "code": "21201901210002",
                "name": "私立林肯文理技藝短期補習班",
                "county": "新北市",
                "class": "文理類,音樂、舞蹈類,美術、書法、攝影、美工設計、圍棋類,",
                "students": "國小,國中,不限年齡"
            },
            "geometry": {
                "type": "Point",
                "coordinates": [
                    121.493927,
                    24.95087
                ]
            }
        },
        {
            "type": "Feature",
            "properties": {
                "code": "21201901220001",
                "name": "安墾文理短期補習班",
                "county": "新北市",
                "class": "文理類,",
                "students": "國小、國中、高中(A班12人、B班14人、C班28人、D班12人、E班14人)"
            },
            "geometry": {
                "type": "Point",
                "coordinates": [
                    121.49486,
                    25.070727
                ]
            }
        },
        {
            "type": "Feature",
            "properties": {
                "code": "21201901220002",
                "name": "私立巨蒔林口文理短期補習班",
                "county": "新北市",
                "class": "文理類,",
                "students": "不限年齡(A班17人、B班10人)"
            },
            "geometry": {
                "type": "Point",
                "coordinates": [
                    121.380433,
                    25.073958
                ]
            }
        },
        {
            "type": "Feature",
            "properties": {
                "code": "21201901230001",
                "name": "私立雅典娜技藝文理短期補習班",
                "county": "新北市",
                "class": "文理類,音樂、舞蹈類,",
                "students": "不限年齡"
            },
            "geometry": {
                "type": "Point",
                "coordinates": [
                    121.518994,
                    25.004567
                ]
            }
        },
        {
            "type": "Feature",
            "properties": {
                "code": "21201901250001",
                "name": "私立積穗文理短期補習班",
                "county": "新北市",
                "class": "文理類,",
                "students": "國小、國中"
            },
            "geometry": {
                "type": "Point",
                "coordinates": [
                    121.481146,
                    24.99932
                ]
            }
        },
        {
            "type": "Feature",
            "properties": {
                "code": "21201901250002",
                "name": "天生文理技藝短期補習班",
                "county": "新北市",
                "class": "文理類,音樂、舞蹈類,",
                "students": "不限年齡"
            },
            "geometry": {
                "type": "Point",
                "coordinates": [
                    121.423642,
                    25.182933
                ]
            }
        },
        {
            "type": "Feature",
            "properties": {
                "code": "21201901310001",
                "name": "私立心田優遊學園文理短期補習班",
                "county": "新北市",
                "class": "文理類,",
                "students": "國小"
            },
            "geometry": {
                "type": "Point",
                "coordinates": [
                    121.484702,
                    25.078506
                ]
            }
        },
        {
            "type": "Feature",
            "properties": {
                "code": "21201901310002",
                "name": "私立樂堡文理短期補習班",
                "county": "新北市",
                "class": "文理類,",
                "students": "國小"
            },
            "geometry": {
                "type": "Point",
                "coordinates": [
                    121.453006,
                    25.009008
                ]
            }
        },
        {
            "type": "Feature",
            "properties": {
                "code": "21201901310003",
                "name": "私立格郁文教事業股份有限公司附設格琳技藝文理短期補習班",
                "county": "新北市",
                "class": "文理類,美術、書法、攝影、美工設計、圍棋類,商類：珠算、心算、會計,",
                "students": "國小、國中,不限年齡,1980-10-31"
            },
            "geometry": {
                "type": "Point",
                "coordinates": [
                    121.463451,
                    25.003012
                ]
            }
        },
        {
            "type": "Feature",
            "properties": {
                "code": "21201902130001",
                "name": "私立學哲文理短期補習班",
                "county": "新北市",
                "class": "文理類,",
                "students": "高中"
            },
            "geometry": {
                "type": "Point",
                "coordinates": [
                    121.444374,
                    25.049137
                ]
            }
        },
        {
            "type": "Feature",
            "properties": {
                "code": "21201902130002",
                "name": "私立學霸文理短期補習班",
                "county": "新北市",
                "class": "文理類,",
                "students": "不限年齡"
            },
            "geometry": {
                "type": "Point",
                "coordinates": [
                    121.497703,
                    25.063327
                ]
            }
        },
        {
            "type": "Feature",
            "properties": {
                "code": "21201902140001",
                "name": "私立躍翰文理短期補習班",
                "county": "新北市",
                "class": "文理類,",
                "students": "不限年齡"
            },
            "geometry": {
                "type": "Point",
                "coordinates": [
                    121.492377,
                    25.069848
                ]
            }
        },
        {
            "type": "Feature",
            "properties": {
                "code": "21201903050001",
                "name": "私立卡農音樂文理技藝短期補習班",
                "county": "新北市",
                "class": "文理類,音樂、舞蹈類,",
                "students": "不限年齡"
            },
            "geometry": {
                "type": "Point",
                "coordinates": [
                    121.456008,
                    25.012146
                ]
            }
        },
        {
            "type": "Feature",
            "properties": {
                "code": "21201903070002",
                "name": "私立馥揚音樂技藝短期補習班",
                "county": "新北市",
                "class": "音樂、舞蹈類,",
                "students": "不限年齡"
            },
            "geometry": {
                "type": "Point",
                "coordinates": [
                    121.516102,
                    24.992988
                ]
            }
        },
        {
            "type": "Feature",
            "properties": {
                "code": "21201903070003",
                "name": "私立碩仁文理短期補習班",
                "county": "新北市",
                "class": "文理類,",
                "students": "不限年齡"
            },
            "geometry": {
                "type": "Point",
                "coordinates": [
                    121.489191,
                    25.052613
                ]
            }
        },
        {
            "type": "Feature",
            "properties": {
                "code": "21201903070004",
                "name": "私立竟功文理短期補習班",
                "county": "新北市",
                "class": "文理類,",
                "students": "不限年齡"
            },
            "geometry": {
                "type": "Point",
                "coordinates": [
                    121.443884,
                    25.045361
                ]
            }
        },
        {
            "type": "Feature",
            "properties": {
                "code": "21201903120001",
                "name": "私立獅子王樂器有限公司附設獅子王音樂技藝短期補習班",
                "county": "新北市",
                "class": "音樂、舞蹈類,",
                "students": "不限年齡"
            },
            "geometry": {
                "type": "Point",
                "coordinates": [
                    121.435556,
                    25.049052
                ]
            }
        },
        {
            "type": "Feature",
            "properties": {
                "code": "21201903120002",
                "name": "私立新世紀沙士比亞文理短期補習班",
                "county": "新北市",
                "class": "文理類,",
                "students": "不限年齡"
            },
            "geometry": {
                "type": "Point",
                "coordinates": [
                    121.438601,
                    25.178239
                ]
            }
        },
        {
            "type": "Feature",
            "properties": {
                "code": "21201903140001",
                "name": "私立雲門國際事業股份有限公司附設江翠舞蹈技藝短期補習班",
                "county": "新北市",
                "class": "音樂、舞蹈類,",
                "students": "3-88歲"
            },
            "geometry": {
                "type": "Point",
                "coordinates": [
                    121.472943,
                    25.029129
                ]
            }
        },
        {
            "type": "Feature",
            "properties": {
                "code": "21201903140002",
                "name": "私立解語數文理短期補習班",
                "county": "新北市",
                "class": "文理類,",
                "students": "國小、國中、高中"
            },
            "geometry": {
                "type": "Point",
                "coordinates": [
                    121.515466,
                    25.014173
                ]
            }
        },
        {
            "type": "Feature",
            "properties": {
                "code": "21201903180001",
                "name": "私立根基教育事業股份有限公司附設耕基文理短期補習班",
                "county": "新北市",
                "class": "文理類,",
                "students": "國中、高中,不限年齡"
            },
            "geometry": {
                "type": "Point",
                "coordinates": [
                    121.502904,
                    25.001391
                ]
            }
        },
        {
            "type": "Feature",
            "properties": {
                "code": "21201904160001",
                "name": "萊譽文理短期補習班",
                "county": "新北市",
                "class": "文理類,",
                "students": "不限年齡"
            },
            "geometry": {
                "type": "Point",
                "coordinates": [
                    121.478365,
                    25.083345
                ]
            }
        },
        {
            "type": "Feature",
            "properties": {
                "code": "21201904160002",
                "name": "私立故事樹教育文創有限公司附設故事樹文理短期補習班",
                "county": "新北市",
                "class": "文理類,",
                "students": "不限年齡(A班21人、B班19人、C班31人)"
            },
            "geometry": {
                "type": "Point",
                "coordinates": [
                    121.455178,
                    25.059858
                ]
            }
        },
        {
            "type": "Feature",
            "properties": {
                "code": "21201904160003",
                "name": "私立科見蘆成文理短期補習班",
                "county": "新北市",
                "class": "文理類,",
                "students": "國小、國中、高中,6-99歲,6-99歲(A班17人、B班16人)"
            },
            "geometry": {
                "type": "Point",
                "coordinates": [
                    121.4579,
                    25.085459
                ]
            }
        },
        {
            "type": "Feature",
            "properties": {
                "code": "21201904250001",
                "name": "私立宋聿文理短期補習班",
                "county": "新北市",
                "class": "文理類,",
                "students": "不限年齡"
            },
            "geometry": {
                "type": "Point",
                "coordinates": [
                    121.433267,
                    25.061219
                ]
            }
        },
        {
            "type": "Feature",
            "properties": {
                "code": "21201904250002",
                "name": "學悟處一對一重慶教室文理短期補習班",
                "county": "新北市",
                "class": "文理類,外語類,",
                "students": "不限年齡(A班23人、B班28人、C班28人、D班13人)"
            },
            "geometry": {
                "type": "Point",
                "coordinates": [
                    121.462821,
                    25.000968
                ]
            }
        },
        {
            "type": "Feature",
            "properties": {
                "code": "21201905060001",
                "name": "私立大手小手文理短期補習班",
                "county": "新北市",
                "class": "文理類,",
                "students": "不限年齡"
            },
            "geometry": {
                "type": "Point",
                "coordinates": [
                    121.447446,
                    25.048779
                ]
            }
        },
        {
            "type": "Feature",
            "properties": {
                "code": "21201905090001",
                "name": "優時代文理短期補習班",
                "county": "新北市",
                "class": "文理類,",
                "students": "不限年齡"
            },
            "geometry": {
                "type": "Point",
                "coordinates": [
                    121.54787,
                    24.973032
                ]
            }
        },
        {
            "type": "Feature",
            "properties": {
                "code": "21201905090002",
                "name": "私立皓揚文理技藝短期補習班",
                "county": "新北市",
                "class": "文理類,音樂、舞蹈類,",
                "students": "不限年齡"
            },
            "geometry": {
                "type": "Point",
                "coordinates": [
                    121.447436,
                    25.168872
                ]
            }
        },
        {
            "type": "Feature",
            "properties": {
                "code": "21201905090003",
                "name": "私立泰山音樂樂園技藝短期補習班",
                "county": "新北市",
                "class": "文理類,音樂、舞蹈類,美術、書法、攝影、美工設計、圍棋類,瑜珈類,",
                "students": "不限年齡"
            },
            "geometry": {
                "type": "Point",
                "coordinates": [
                    121.427425,
                    25.048508
                ]
            }
        },
        {
            "type": "Feature",
            "properties": {
                "code": "21201905230001",
                "name": "私立新鐸文理短期補習班",
                "county": "新北市",
                "class": "文理類,",
                "students": "不限年齡"
            },
            "geometry": {
                "type": "Point",
                "coordinates": [
                    121.448668,
                    25.053208
                ]
            }
        },
        {
            "type": "Feature",
            "properties": {
                "code": "21201905260001",
                "name": "私立下課趣文理技藝短期補習班",
                "county": "新北市",
                "class": "文理類,美術、書法、攝影、美工設計、圍棋類,其他類,",
                "students": "不限年齡"
            },
            "geometry": {
                "type": "Point",
                "coordinates": [
                    121.461845,
                    25.025047
                ]
            }
        },
        {
            "type": "Feature",
            "properties": {
                "code": "21201905260002",
                "name": "私立曾光文理短期補習班",
                "county": "新北市",
                "class": "文理類,",
                "students": "國小、國中、高中"
            },
            "geometry": {
                "type": "Point",
                "coordinates": [
                    121.446592,
                    25.172101
                ]
            }
        },
        {
            "type": "Feature",
            "properties": {
                "code": "21201905300002",
                "name": "私立玩藝空間專業藝術畫室技藝短期補習班",
                "county": "新北市",
                "class": "美術、書法、攝影、美工設計、圍棋類,",
                "students": "不限(各31人、41人)"
            },
            "geometry": {
                "type": "Point",
                "coordinates": [
                    121.663839,
                    25.069037
                ]
            }
        },
        {
            "type": "Feature",
            "properties": {
                "code": "21201906060001",
                "name": "私立明慧學苑文理短期補習班",
                "county": "新北市",
                "class": "文理類,",
                "students": "不限年齡,小學、國中、高中"
            },
            "geometry": {
                "type": "Point",
                "coordinates": [
                    121.522293,
                    24.999827
                ]
            }
        },
        {
            "type": "Feature",
            "properties": {
                "code": "21201906060002",
                "name": "私立正勝文理短期補習班",
                "county": "新北市",
                "class": "文理類,",
                "students": "國小、國中、高中"
            },
            "geometry": {
                "type": "Point",
                "coordinates": [
                    121.426643,
                    25.022637
                ]
            }
        },
        {
            "type": "Feature",
            "properties": {
                "code": "21201906200001",
                "name": "私立曲響技藝短期補習班",
                "county": "新北市",
                "class": "音樂、舞蹈類,美術、書法、攝影、美工設計、圍棋類,",
                "students": "不限年齡"
            },
            "geometry": {
                "type": "Point",
                "coordinates": [
                    121.460576,
                    25.011604
                ]
            }
        },
        {
            "type": "Feature",
            "properties": {
                "code": "21201906200002",
                "name": "私立明林文理短期補習班",
                "county": "新北市",
                "class": "文理類,",
                "students": "不限年齡"
            },
            "geometry": {
                "type": "Point",
                "coordinates": [
                    121.47438,
                    25.024837
                ]
            }
        },
        {
            "type": "Feature",
            "properties": {
                "code": "21201906270002",
                "name": "私立喬幼美語會話文理短期補習班",
                "county": "新北市",
                "class": "文理類,",
                "students": "不限年齡"
            },
            "geometry": {
                "type": "Point",
                "coordinates": [
                    121.485007,
                    24.997167
                ]
            }
        },
        {
            "type": "Feature",
            "properties": {
                "code": "21201906300001",
                "name": "私立華甫文理短期補習班",
                "county": "新北市",
                "class": "文理類,",
                "students": "國小~高中"
            },
            "geometry": {
                "type": "Point",
                "coordinates": [
                    121.459605,
                    25.027559
                ]
            }
        },
        {
            "type": "Feature",
            "properties": {
                "code": "21201907020001",
                "name": "私立財團法人新北市私立張方大慈善事業基金會附設士箱文理技藝短期補習班",
                "county": "新北市",
                "class": "文理類,音樂、舞蹈類,美術、書法、攝影、美工設計、圍棋類,商類：珠算、心算、會計,",
                "students": "不限年齡"
            },
            "geometry": {
                "type": "Point",
                "coordinates": [
                    121.416267,
                    24.988845
                ]
            }
        },
        {
            "type": "Feature",
            "properties": {
                "code": "21201907020002",
                "name": "私立佳晟文理技藝短期補習班",
                "county": "新北市",
                "class": "文理類,音樂、舞蹈類,美術、書法、攝影、美工設計、圍棋類,",
                "students": "不限年齡,不限年齡(各2、3小時)"
            },
            "geometry": {
                "type": "Point",
                "coordinates": [
                    121.443729,
                    25.180261
                ]
            }
        },
        {
            "type": "Feature",
            "properties": {
                "code": "21201907040001",
                "name": "私立肯尼思文理短期補習班",
                "county": "新北市",
                "class": "文理類,",
                "students": "不限年齡"
            },
            "geometry": {
                "type": "Point",
                "coordinates": [
                    121.47241,
                    25.024103
                ]
            }
        },
        {
            "type": "Feature",
            "properties": {
                "code": "21201907060001",
                "name": "私立君宥文理短期補習班",
                "county": "新北市",
                "class": "文理類,",
                "students": "國小以上(國文2小時、英文4小時、數學4小時、自然2小時),不限年齡"
            },
            "geometry": {
                "type": "Point",
                "coordinates": [
                    121.503612,
                    24.999617
                ]
            }
        },
        {
            "type": "Feature",
            "properties": {
                "code": "21201907100001",
                "name": "私立台師大文理短期補習班",
                "county": "新北市",
                "class": "文理類,",
                "students": "國小、國中"
            },
            "geometry": {
                "type": "Point",
                "coordinates": [
                    121.430111,
                    24.987258
                ]
            }
        },
        {
            "type": "Feature",
            "properties": {
                "code": "21201907100002",
                "name": "私立思邈文理短期補習班",
                "county": "新北市",
                "class": "文理類,",
                "students": "不限年齡"
            },
            "geometry": {
                "type": "Point",
                "coordinates": [
                    121.371594,
                    25.080199
                ]
            }
        },
        {
            "type": "Feature",
            "properties": {
                "code": "21201907110001",
                "name": "私立翔絮長榮舞蹈技藝短期補習班",
                "county": "新北市",
                "class": "音樂、舞蹈類,",
                "students": "不限年齡(A班52人、B班14人)"
            },
            "geometry": {
                "type": "Point",
                "coordinates": [
                    121.459248,
                    25.089417
                ]
            }
        },
        {
            "type": "Feature",
            "properties": {
                "code": "21201907110002",
                "name": "私立易佰文理短期補習班",
                "county": "新北市",
                "class": "文理類,",
                "students": "不限年齡"
            },
            "geometry": {
                "type": "Point",
                "coordinates": [
                    121.418526,
                    25.020489
                ]
            }
        },
        {
            "type": "Feature",
            "properties": {
                "code": "21201907250001",
                "name": "私立采藝技藝短期補習班",
                "county": "新北市",
                "class": "音樂、舞蹈類,",
                "students": "一般社會大眾"
            },
            "geometry": {
                "type": "Point",
                "coordinates": [
                    121.530468,
                    24.974269
                ]
            }
        },
        {
            "type": "Feature",
            "properties": {
                "code": "21201907250002",
                "name": "私立Fun學123文理短期補習班",
                "county": "新北市",
                "class": "文理類,",
                "students": "國小至成人"
            },
            "geometry": {
                "type": "Point",
                "coordinates": [
                    121.807852,
                    25.106998
                ]
            }
        },
        {
            "type": "Feature",
            "properties": {
                "code": "21201907300001",
                "name": "私立加州森林文理技藝短期補習班",
                "county": "新北市",
                "class": "文理類,商類：珠算、心算、會計,",
                "students": "國小、國中,國小,不限年齡"
            },
            "geometry": {
                "type": "Point",
                "coordinates": [
                    121.490291,
                    25.088283
                ]
            }
        },
        {
            "type": "Feature",
            "properties": {
                "code": "21201907310001",
                "name": "私立首席音樂學苑技藝短期補習班",
                "county": "新北市",
                "class": "音樂、舞蹈類,",
                "students": "幼兒至成人"
            },
            "geometry": {
                "type": "Point",
                "coordinates": [
                    121.445415,
                    25.168901
                ]
            }
        },
        {
            "type": "Feature",
            "properties": {
                "code": "21201908020001",
                "name": "私立偉伯文理短期補習班",
                "county": "新北市",
                "class": "文理類,",
                "students": "國小以上"
            },
            "geometry": {
                "type": "Point",
                "coordinates": [
                    121.442002,
                    25.174522
                ]
            }
        },
        {
            "type": "Feature",
            "properties": {
                "code": "21201908050001",
                "name": "私立呂興文理短期補習班",
                "county": "新北市",
                "class": "文理類,",
                "students": "國小至高中"
            },
            "geometry": {
                "type": "Point",
                "coordinates": [
                    121.440253,
                    25.182129
                ]
            }
        },
        {
            "type": "Feature",
            "properties": {
                "code": "21201908050002",
                "name": "私立仁人教育事業有限公司附設文人文理短期補習班",
                "county": "新北市",
                "class": "文理類,",
                "students": "國小~國中"
            },
            "geometry": {
                "type": "Point",
                "coordinates": [
                    121.456109,
                    25.012834
                ]
            }
        },
        {
            "type": "Feature",
            "properties": {
                "code": "21201908050003",
                "name": "私立樂樂文理短期補習班",
                "county": "新北市",
                "class": "文理類,",
                "students": "不限年齡"
            },
            "geometry": {
                "type": "Point",
                "coordinates": [
                    121.446172,
                    25.18323
                ]
            }
        },
        {
            "type": "Feature",
            "properties": {
                "code": "21201908060001",
                "name": "私立勵進文理短期補習班",
                "county": "新北市",
                "class": "文理類,",
                "students": "國小、國中"
            },
            "geometry": {
                "type": "Point",
                "coordinates": [
                    121.478848,
                    25.089357
                ]
            }
        },
        {
            "type": "Feature",
            "properties": {
                "code": "21201908060002",
                "name": "私立陳立教育事業股份有限公司附設陳立文理短期補習班",
                "county": "新北市",
                "class": "文理類,",
                "students": "6歲以上"
            },
            "geometry": {
                "type": "Point",
                "coordinates": [
                    121.540728,
                    24.972442
                ]
            }
        },
        {
            "type": "Feature",
            "properties": {
                "code": "21201908060003",
                "name": "文達文理技藝短期補習班",
                "county": "新北市",
                "class": "文理類,",
                "students": "不限年齡"
            },
            "geometry": {
                "type": "Point",
                "coordinates": [
                    121.382414,
                    25.077831
                ]
            }
        },
        {
            "type": "Feature",
            "properties": {
                "code": "21201908150001",
                "name": "私立巧思菓文理短期補習班",
                "county": "新北市",
                "class": "文理類,",
                "students": "國小、國中、高中"
            },
            "geometry": {
                "type": "Point",
                "coordinates": [
                    121.50449,
                    25.256993
                ]
            }
        },
        {
            "type": "Feature",
            "properties": {
                "code": "21201908150002",
                "name": "私立永春泉文理短期補習班",
                "county": "新北市",
                "class": "文理類,",
                "students": "不限年齡"
            },
            "geometry": {
                "type": "Point",
                "coordinates": [
                    121.459163,
                    25.010674
                ]
            }
        },
        {
            "type": "Feature",
            "properties": {
                "code": "21201908150003",
                "name": "私立安簥文理短期補習班",
                "county": "新北市",
                "class": "文理類,",
                "students": "國小,國中"
            },
            "geometry": {
                "type": "Point",
                "coordinates": [
                    121.381513,
                    24.948833
                ]
            }
        },
        {
            "type": "Feature",
            "properties": {
                "code": "21201908200002",
                "name": "私立捷升教育文理短期補習班",
                "county": "新北市",
                "class": "文理類,",
                "students": "國小、國中"
            },
            "geometry": {
                "type": "Point",
                "coordinates": [
                    121.429209,
                    24.988878
                ]
            }
        },
        {
            "type": "Feature",
            "properties": {
                "code": "21201908220001",
                "name": "私立珮卡音樂學苑技藝短期補習班",
                "county": "新北市",
                "class": "音樂、舞蹈類,",
                "students": "5-12歲"
            },
            "geometry": {
                "type": "Point",
                "coordinates": [
                    121.377143,
                    25.070022
                ]
            }
        },
        {
            "type": "Feature",
            "properties": {
                "code": "21201908230001",
                "name": "私立科研苑文理技藝短期補習班",
                "county": "新北市",
                "class": "文理類,資訊類,",
                "students": "國小、國中、高中,不限年齡"
            },
            "geometry": {
                "type": "Point",
                "coordinates": [
                    121.374733,
                    25.083829
                ]
            }
        },
        {
            "type": "Feature",
            "properties": {
                "code": "21201908250001",
                "name": "私立文明塾教育有限公司附設文明塾文理短期補習班",
                "county": "新北市",
                "class": "文理類,",
                "students": "國小、國中、高中"
            },
            "geometry": {
                "type": "Point",
                "coordinates": [
                    121.462826,
                    25.091273
                ]
            }
        },
        {
            "type": "Feature",
            "properties": {
                "code": "21201908250002",
                "name": "私立開明文教有限公司附設開明文理短期補習班",
                "county": "新北市",
                "class": "文理類,",
                "students": "國小、國中、高中"
            },
            "geometry": {
                "type": "Point",
                "coordinates": [
                    121.504461,
                    24.999858
                ]
            }
        },
        {
            "type": "Feature",
            "properties": {
                "code": "21201909050001",
                "name": "私立沙崙文理技藝短期補習班",
                "county": "新北市",
                "class": "文理類,音樂、舞蹈類,",
                "students": "不限年齡"
            },
            "geometry": {
                "type": "Point",
                "coordinates": [
                    121.423891,
                    25.182509
                ]
            }
        },
        {
            "type": "Feature",
            "properties": {
                "code": "21201909050002",
                "name": "私立艾譜利文理短期補習班",
                "county": "新北市",
                "class": "文理類,",
                "students": "不限年齡"
            },
            "geometry": {
                "type": "Point",
                "coordinates": [
                    121.46816,
                    24.991799
                ]
            }
        },
        {
            "type": "Feature",
            "properties": {
                "code": "21201909090001",
                "name": "私立宥寶文理短期補習班",
                "county": "新北市",
                "class": "文理類,",
                "students": "不限年齡"
            },
            "geometry": {
                "type": "Point",
                "coordinates": [
                    121.481021,
                    25.076129
                ]
            }
        },
        {
            "type": "Feature",
            "properties": {
                "code": "21201909200001",
                "name": "私立忠義文理短期補習班",
                "county": "新北市",
                "class": "文理類,",
                "students": "不限年齡"
            },
            "geometry": {
                "type": "Point",
                "coordinates": [
                    121.463477,
                    25.088698
                ]
            }
        },
        {
            "type": "Feature",
            "properties": {
                "code": "21201909210001",
                "name": "私立晴芭蕾舞蹈技藝短期補習班",
                "county": "新北市",
                "class": "音樂、舞蹈類,",
                "students": "不限年齡"
            },
            "geometry": {
                "type": "Point",
                "coordinates": [
                    121.36503,
                    25.071746
                ]
            }
        },
        {
            "type": "Feature",
            "properties": {
                "code": "21201909260001",
                "name": "私立當盛有限公司附設欣宸文理短期補習班",
                "county": "新北市",
                "class": "文理類,",
                "students": "不限年齡"
            },
            "geometry": {
                "type": "Point",
                "coordinates": [
                    121.443594,
                    25.182807
                ]
            }
        },
        {
            "type": "Feature",
            "properties": {
                "code": "21201910130001",
                "name": "私立立橙文理技藝短期補習班",
                "county": "新北市",
                "class": "文理類,商類：珠算、心算、會計,",
                "students": "不限年齡(A班9人、B班11人),不限年齡"
            },
            "geometry": {
                "type": "Point",
                "coordinates": [
                    121.381377,
                    24.948694
                ]
            }
        },
        {
            "type": "Feature",
            "properties": {
                "code": "21201910130002",
                "name": "私立向學文理短期補習班",
                "county": "新北市",
                "class": "文理類,",
                "students": "不限年齡"
            },
            "geometry": {
                "type": "Point",
                "coordinates": [
                    121.455652,
                    24.982185
                ]
            }
        },
        {
            "type": "Feature",
            "properties": {
                "code": "21201910170001",
                "name": "私立踢踢音樂文理技藝短期補習班",
                "county": "新北市",
                "class": "文理類,音樂、舞蹈類,",
                "students": "不限年齡"
            },
            "geometry": {
                "type": "Point",
                "coordinates": [
                    121.54376,
                    24.975512
                ]
            }
        },
        {
            "type": "Feature",
            "properties": {
                "code": "21201910200001",
                "name": "私立習淼文理短期補習班",
                "county": "新北市",
                "class": "文理類,",
                "students": "不限年齡"
            },
            "geometry": {
                "type": "Point",
                "coordinates": [
                    121.446834,
                    25.05424
                ]
            }
        },
        {
            "type": "Feature",
            "properties": {
                "code": "21201910220001",
                "name": "私立虔虔啟萌音樂坊文理技藝短期補習班",
                "county": "新北市",
                "class": "文理類,音樂、舞蹈類,美術、書法、攝影、美工設計、圍棋類,瑜珈類,",
                "students": "不限年齡"
            },
            "geometry": {
                "type": "Point",
                "coordinates": [
                    121.418316,
                    24.988471
                ]
            }
        },
        {
            "type": "Feature",
            "properties": {
                "code": "21201910220002",
                "name": "樂學習文理短期補習班",
                "county": "新北市",
                "class": "文理類,",
                "students": "國小"
            },
            "geometry": {
                "type": "Point",
                "coordinates": [
                    121.46057,
                    25.058873
                ]
            }
        },
        {
            "type": "Feature",
            "properties": {
                "code": "21201910230001",
                "name": "私立冠敦文教有限公司附設冠敦文理短期補習班",
                "county": "新北市",
                "class": "文理類,",
                "students": "國小、國中、高中"
            },
            "geometry": {
                "type": "Point",
                "coordinates": [
                    121.376133,
                    25.08218
                ]
            }
        },
        {
            "type": "Feature",
            "properties": {
                "code": "21201910280001",
                "name": "私立田馥真英語教室文理短期補習班",
                "county": "新北市",
                "class": "文理類,",
                "students": "不限年齡"
            },
            "geometry": {
                "type": "Point",
                "coordinates": [
                    121.467502,
                    24.987428
                ]
            }
        },
        {
            "type": "Feature",
            "properties": {
                "code": "21201910290001",
                "name": "私立育上文理短期補習班",
                "county": "新北市",
                "class": "文理類,",
                "students": "不限年齡"
            },
            "geometry": {
                "type": "Point",
                "coordinates": [
                    121.418296,
                    25.025348
                ]
            }
        },
        {
            "type": "Feature",
            "properties": {
                "code": "21201910290002",
                "name": "私立朗耘文理技藝短期補習班",
                "county": "新北市",
                "class": "文理類,音樂、舞蹈類,",
                "students": "國小"
            },
            "geometry": {
                "type": "Point",
                "coordinates": [
                    121.380481,
                    24.947868
                ]
            }
        },
        {
            "type": "Feature",
            "properties": {
                "code": "21201911020001",
                "name": "私立宏立堡文理技藝短期補習班",
                "county": "新北市",
                "class": "文理類,資訊類,",
                "students": "國小、國中、高中,不限年齡"
            },
            "geometry": {
                "type": "Point",
                "coordinates": [
                    121.446599,
                    25.171547
                ]
            }
        },
        {
            "type": "Feature",
            "properties": {
                "code": "21201911050001",
                "name": "私立學鼎文理短期補習班",
                "county": "新北市",
                "class": "文理類,",
                "students": "不限年齡"
            },
            "geometry": {
                "type": "Point",
                "coordinates": [
                    121.44515,
                    25.047981
                ]
            }
        },
        {
            "type": "Feature",
            "properties": {
                "code": "21201911100001",
                "name": "私立聖恩文理短期補習班",
                "county": "新北市",
                "class": "文理類,",
                "students": "6-60歲(A班19人、B班23人)"
            },
            "geometry": {
                "type": "Point",
                "coordinates": [
                    121.374809,
                    25.079626
                ]
            }
        },
        {
            "type": "Feature",
            "properties": {
                "code": "21201911120001",
                "name": "私立學習文理短期補習班",
                "county": "新北市",
                "class": "文理類,",
                "students": "國小、國中"
            },
            "geometry": {
                "type": "Point",
                "coordinates": [
                    121.446689,
                    25.178288
                ]
            }
        },
        {
            "type": "Feature",
            "properties": {
                "code": "21201911120002",
                "name": "私立梅薇思英文文理短期補習班",
                "county": "新北市",
                "class": "文理類,",
                "students": "6歲以上"
            },
            "geometry": {
                "type": "Point",
                "coordinates": [
                    121.380433,
                    25.073958
                ]
            }
        },
        {
            "type": "Feature",
            "properties": {
                "code": "21201911140001",
                "name": "私立賦格技藝短期補習班",
                "county": "新北市",
                "class": "音樂、舞蹈類,",
                "students": "不限年齡"
            },
            "geometry": {
                "type": "Point",
                "coordinates": [
                    121.345027,
                    24.954381
                ]
            }
        },
        {
            "type": "Feature",
            "properties": {
                "code": "21201911180001",
                "name": "私立柏淶特文理技藝短期補習班",
                "county": "新北市",
                "class": "文理類,商類：珠算、心算、會計,",
                "students": "不限年齡"
            },
            "geometry": {
                "type": "Point",
                "coordinates": [
                    121.443614,
                    24.977723
                ]
            }
        },
        {
            "type": "Feature",
            "properties": {
                "code": "21201911190001",
                "name": "私立放學回家技藝文理短期補習班",
                "county": "新北市",
                "class": "文理類,",
                "students": "不限年齡"
            },
            "geometry": {
                "type": "Point",
                "coordinates": [
                    121.372739,
                    25.066987
                ]
            }
        },
        {
            "type": "Feature",
            "properties": {
                "code": "21201911190002",
                "name": "私立奇異樹股份有限公司附設奇異鳥米蘭文理短期補習班",
                "county": "新北市",
                "class": "文理類,",
                "students": "不限年齡,7-18歲"
            },
            "geometry": {
                "type": "Point",
                "coordinates": [
                    121.423064,
                    24.993324
                ]
            }
        },
        {
            "type": "Feature",
            "properties": {
                "code": "21201911190003",
                "name": "私立宏名文理短期補習班",
                "county": "新北市",
                "class": "文理類,",
                "students": "國小以上"
            },
            "geometry": {
                "type": "Point",
                "coordinates": [
                    121.362247,
                    24.937124
                ]
            }
        },
        {
            "type": "Feature",
            "properties": {
                "code": "21201911200001",
                "name": "私立浩群資優文理短期補習班",
                "county": "新北市",
                "class": "文理類,",
                "students": "不限年齡"
            },
            "geometry": {
                "type": "Point",
                "coordinates": [
                    121.456462,
                    24.982745
                ]
            }
        },
        {
            "type": "Feature",
            "properties": {
                "code": "21201911200002",
                "name": "私立文成文理技藝短期補習班",
                "county": "新北市",
                "class": "文理類,",
                "students": "不限年齡"
            },
            "geometry": {
                "type": "Point",
                "coordinates": [
                    121.65478,
                    25.063922
                ]
            }
        },
        {
            "type": "Feature",
            "properties": {
                "code": "21201911200003",
                "name": "私立捷成文理短期補習班",
                "county": "新北市",
                "class": "文理類,",
                "students": "不限年齡"
            },
            "geometry": {
                "type": "Point",
                "coordinates": [
                    121.454965,
                    25.053816
                ]
            }
        },
        {
            "type": "Feature",
            "properties": {
                "code": "21201911220001",
                "name": "私立育欣文理短期補習班",
                "county": "新北市",
                "class": "文理類,",
                "students": "不限年齡"
            },
            "geometry": {
                "type": "Point",
                "coordinates": [
                    121.522879,
                    24.996897
                ]
            }
        },
        {
            "type": "Feature",
            "properties": {
                "code": "21201911250001",
                "name": "私立華格納納音樂技藝短期補習班",
                "county": "新北市",
                "class": "音樂、舞蹈類,",
                "students": "國小以上"
            },
            "geometry": {
                "type": "Point",
                "coordinates": [
                    121.42681,
                    24.985296
                ]
            }
        },
        {
            "type": "Feature",
            "properties": {
                "code": "21201911250002",
                "name": "私立蘋果美術文理技藝短期補習班",
                "county": "新北市",
                "class": "文理類,美術、書法、攝影、美工設計、圍棋類,",
                "students": "不限年齡"
            },
            "geometry": {
                "type": "Point",
                "coordinates": [
                    121.655682,
                    25.064346
                ]
            }
        },
        {
            "type": "Feature",
            "properties": {
                "code": "21201911280001",
                "name": "私立陽光貝兒多元智能文理技藝短期補習班",
                "county": "新北市",
                "class": "文理類,美術、書法、攝影、美工設計、圍棋類,其他類,",
                "students": "不限年齡"
            },
            "geometry": {
                "type": "Point",
                "coordinates": [
                    121.463955,
                    25.012176
                ]
            }
        },
        {
            "type": "Feature",
            "properties": {
                "code": "21201912100001",
                "name": "私立小太陽教育事業股份有限公司附設空美菁英文理技藝短期補習班",
                "county": "新北市",
                "class": "文理類,音樂、舞蹈類,其他類,",
                "students": "國小、國中,不限年齡"
            },
            "geometry": {
                "type": "Point",
                "coordinates": [
                    121.48161,
                    25.014742
                ]
            }
        },
        {
            "type": "Feature",
            "properties": {
                "code": "21201912100002",
                "name": "私立德銘文理短期補習班",
                "county": "新北市",
                "class": "文理類,",
                "students": "國小"
            },
            "geometry": {
                "type": "Point",
                "coordinates": [
                    121.484448,
                    25.064238
                ]
            }
        },
        {
            "type": "Feature",
            "properties": {
                "code": "21201912100003",
                "name": "小丑魚文理技藝短期補習班",
                "county": "新北市",
                "class": "文理類,美術、書法、攝影、美工設計、圍棋類,",
                "students": "不限年齡,國小、國中、高中"
            },
            "geometry": {
                "type": "Point",
                "coordinates": [
                    121.484816,
                    25.069299
                ]
            }
        },
        {
            "type": "Feature",
            "properties": {
                "code": "21201912120001",
                "name": "私立毅修文理短期補習班",
                "county": "新北市",
                "class": "文理類,",
                "students": "7-18歲"
            },
            "geometry": {
                "type": "Point",
                "coordinates": [
                    121.352234,
                    24.952753
                ]
            }
        },
        {
            "type": "Feature",
            "properties": {
                "code": "21201912170001",
                "name": "私立台灣知識庫股份有限公司附設洋碩甄戰數位學堂文理短期補習班",
                "county": "新北市",
                "class": "文理類,",
                "students": "高中"
            },
            "geometry": {
                "type": "Point",
                "coordinates": [
                    121.453473,
                    25.03657
                ]
            }
        },
        {
            "type": "Feature",
            "properties": {
                "code": "21201912190002",
                "name": "全真一對一文理短期補習班",
                "county": "新北市",
                "class": "文理類,",
                "students": "國小以上"
            },
            "geometry": {
                "type": "Point",
                "coordinates": [
                    121.461994,
                    25.089079
                ]
            }
        },
        {
            "type": "Feature",
            "properties": {
                "code": "21201912270001",
                "name": "私立智英文理短期補習班",
                "county": "新北市",
                "class": "文理類,",
                "students": "不限年齡"
            },
            "geometry": {
                "type": "Point",
                "coordinates": [
                    121.494224,
                    25.069614
                ]
            }
        },
        {
            "type": "Feature",
            "properties": {
                "code": "21201912290001",
                "name": "私立三格林文理技藝短期補習班",
                "county": "新北市",
                "class": "文理類,美術、書法、攝影、美工設計、圍棋類,",
                "students": "國小,一般社會大眾"
            },
            "geometry": {
                "type": "Point",
                "coordinates": [
                    121.388566,
                    25.07982
                ]
            }
        },
        {
            "type": "Feature",
            "properties": {
                "code": "21201912290002",
                "name": "私立晟昇文理短期補習班",
                "county": "新北市",
                "class": "文理類,",
                "students": "不限年齡"
            },
            "geometry": {
                "type": "Point",
                "coordinates": [
                    121.426747,
                    25.02314
                ]
            }
        },
        {
            "type": "Feature",
            "properties": {
                "code": "21202001020001",
                "name": "私立奇異莊股份有限公司附設奇異鳥四維文理短期補習班",
                "county": "新北市",
                "class": "文理類,",
                "students": "7-18歲,10-18歲"
            },
            "geometry": {
                "type": "Point",
                "coordinates": [
                    121.423942,
                    25.02398
                ]
            }
        },
        {
            "type": "Feature",
            "properties": {
                "code": "21202001060001",
                "name": "私立永超文理短期補習班",
                "county": "新北市",
                "class": "文理類,",
                "students": "不限年齡"
            },
            "geometry": {
                "type": "Point",
                "coordinates": [
                    121.418884,
                    24.989258
                ]
            }
        },
        {
            "type": "Feature",
            "properties": {
                "code": "21202001060002",
                "name": "私立輯締室內裝修設計有限公司附設輯格技藝短期補習班",
                "county": "新北市",
                "class": "電機、汽車修護、建築、工藝、製圖類,",
                "students": "不限年齡"
            },
            "geometry": {
                "type": "Point",
                "coordinates": [
                    121.465059,
                    25.018502
                ]
            }
        },
        {
            "type": "Feature",
            "properties": {
                "code": "21202001070001",
                "name": "私立頂尖高手文理短期補習班",
                "county": "新北市",
                "class": "文理類,",
                "students": "不限年齡,不限年齡(國語2小時、數學2小時、社會1小時、自然1小時)"
            },
            "geometry": {
                "type": "Point",
                "coordinates": [
                    121.426373,
                    24.98498
                ]
            }
        },
        {
            "type": "Feature",
            "properties": {
                "code": "21202001070002",
                "name": "私立奇異林股份有限公司附設奇異鳥麗林文理短期補習班",
                "county": "新北市",
                "class": "文理類,",
                "students": "不限年齡,5-18歲,10-18歲"
            },
            "geometry": {
                "type": "Point",
                "coordinates": [
                    121.371305,
                    25.071518
                ]
            }
        },
        {
            "type": "Feature",
            "properties": {
                "code": "21202001070003",
                "name": "私立加利福尼亞文理短期補習班",
                "county": "新北市",
                "class": "文理類,",
                "students": "不限年齡,學齡前"
            },
            "geometry": {
                "type": "Point",
                "coordinates": [
                    121.37079,
                    25.070336
                ]
            }
        },
        {
            "type": "Feature",
            "properties": {
                "code": "21202001120001",
                "name": "學悟處教育科技有限公司附設私立學悟處一對一福營文理短期補習班",
                "county": "新北市",
                "class": "文理類,",
                "students": "不限年齡"
            },
            "geometry": {
                "type": "Point",
                "coordinates": [
                    121.425186,
                    25.023868
                ]
            }
        },
        {
            "type": "Feature",
            "properties": {
                "code": "21202001120002",
                "name": "私立好好貳號文理短期補習班",
                "county": "新北市",
                "class": "文理類,",
                "students": "不限年齡"
            },
            "geometry": {
                "type": "Point",
                "coordinates": [
                    121.424087,
                    25.019452
                ]
            }
        },
        {
            "type": "Feature",
            "properties": {
                "code": "21202001160001",
                "name": "私立加英文理短期補習班",
                "county": "新北市",
                "class": "文理類,",
                "students": "國小至成人"
            },
            "geometry": {
                "type": "Point",
                "coordinates": [
                    121.472308,
                    25.007176
                ]
            }
        },
        {
            "type": "Feature",
            "properties": {
                "code": "21202001300001",
                "name": "私立奇異果股份有限公司附設奇異鳥中平文理短期補習班",
                "county": "新北市",
                "class": "文理類,",
                "students": "不限年齡,7-18歲,10-18歲"
            },
            "geometry": {
                "type": "Point",
                "coordinates": [
                    121.445024,
                    25.045631
                ]
            }
        },
        {
            "type": "Feature",
            "properties": {
                "code": "21202001300002",
                "name": "私立興華藝術文理技藝短期補習班",
                "county": "新北市",
                "class": "文理類,美術、書法、攝影、美工設計、圍棋類,",
                "students": "不限年齡(數學5小時、國語5小時、社會5小時、自然5小時、英語15小時)(A班17人、B班32人、C班18人、D班18人、E班15人、F班14人),不限年齡"
            },
            "geometry": {
                "type": "Point",
                "coordinates": [
                    121.462508,
                    25.079692
                ]
            }
        },
        {
            "type": "Feature",
            "properties": {
                "code": "21202002060001",
                "name": "私立新生菊子美術技藝短期補習班",
                "county": "新北市",
                "class": "美術、書法、攝影、美工設計、圍棋類,",
                "students": "不限年齡"
            },
            "geometry": {
                "type": "Point",
                "coordinates": [
                    121.42701,
                    25.017909
                ]
            }
        },
        {
            "type": "Feature",
            "properties": {
                "code": "21202002230001",
                "name": "私立艾加文理短期補習班",
                "county": "新北市",
                "class": "文理類,",
                "students": "國小、國中、高中"
            },
            "geometry": {
                "type": "Point",
                "coordinates": [
                    121.46463,
                    25.084236
                ]
            }
        },
        {
            "type": "Feature",
            "properties": {
                "code": "21202002240001",
                "name": "私立極舞藝街舞技藝短期補習班",
                "county": "新北市",
                "class": "音樂、舞蹈類,",
                "students": "不限年齡(A班23小時、B班19小時)"
            },
            "geometry": {
                "type": "Point",
                "coordinates": [
                    121.464485,
                    25.030795
                ]
            }
        },
        {
            "type": "Feature",
            "properties": {
                "code": "21202002270001",
                "name": "私立超人王文理技藝短期補習班",
                "county": "新北市",
                "class": "文理類,商類：珠算、心算、會計,",
                "students": "國小、國中,不限年齡"
            },
            "geometry": {
                "type": "Point",
                "coordinates": [
                    121.462408,
                    25.00431
                ]
            }
        },
        {
            "type": "Feature",
            "properties": {
                "code": "21202003030001",
                "name": "私立丞評文理短期補習班",
                "county": "新北市",
                "class": "文理類,",
                "students": "不限年齡"
            },
            "geometry": {
                "type": "Point",
                "coordinates": [
                    121.484881,
                    25.069797
                ]
            }
        },
        {
            "type": "Feature",
            "properties": {
                "code": "21202003030002",
                "name": "私立奇異林股份有限公司附設奇異鳥頭湖文理短期補習班",
                "county": "新北市",
                "class": "文理類,",
                "students": "不限年齡,5-18歲,10-18歲"
            },
            "geometry": {
                "type": "Point",
                "coordinates": [
                    121.372676,
                    25.081358
                ]
            }
        },
        {
            "type": "Feature",
            "properties": {
                "code": "21202003040001",
                "name": "私立智蘆文理短期補習班",
                "county": "新北市",
                "class": "文理類,",
                "students": "不限年齡,不限年齡(國語2小時、數學2小時、社會1小時、自然1小時)"
            },
            "geometry": {
                "type": "Point",
                "coordinates": [
                    121.469589,
                    25.084341
                ]
            }
        },
        {
            "type": "Feature",
            "properties": {
                "code": "21202003040002",
                "name": "私立邱吉爾文理短期補習班",
                "county": "新北市",
                "class": "文理類,",
                "students": "國小、國中、高中"
            },
            "geometry": {
                "type": "Point",
                "coordinates": [
                    121.400983,
                    25.148384
                ]
            }
        },
        {
            "type": "Feature",
            "properties": {
                "code": "21202003100001",
                "name": "私立佳學文理短期補習班",
                "county": "新北市",
                "class": "文理類,",
                "students": "不限年齡(國語2小時、英語4小時、數學4小時、自然與生活科技3小時、社會2小時)"
            },