{
    "type": "FeatureCollection",
    "features": [
        {
            "type": "Feature",
            "properties": {
                "code": "33202203150001",
                "name": "私立方華文理短期補習班龍岡分班",
                "county": "桃園市",
                "class": "文理類,",
                "students": "高中,國中"
            },
            "geometry": {
                "type": "Point",
                "coordinates": [
                    121.252794,
                    24.929088
                ]
            }
        },
        {
            "type": "Feature",
            "properties": {
                "code": "33202203150002",
                "name": "私立奧斯汀文理短期補習班國際教育分班",
                "county": "桃園市",
                "class": "文理類,外語類,",
                "students": "國小,國中"
            },
            "geometry": {
                "type": "Point",
                "coordinates": [
                    121.29277,
                    25.021583
                ]
            }
        },
        {
            "type": "Feature",
            "properties": {
                "code": "33202203290001",
                "name": "私立文鼎語文文理短期補習班",
                "county": "桃園市",
                "class": "文理類,外語類,其他類,",
                "students": "國小,國中"
            },
            "geometry": {
                "type": "Point",
                "coordinates": [
                    121.304802,
                    24.965232
                ]
            }
        },
        {
            "type": "Feature",
            "properties": {
                "code": "33202204140001",
                "name": "私立晨曦文理短期補習班",
                "county": "桃園市",
                "class": "文理類,",
                "students": "國中,國小"
            },
            "geometry": {
                "type": "Point",
                "coordinates": [
                    121.404508,
                    25.018556
                ]
            }
        },
        {
            "type": "Feature",
            "properties": {
                "code": "33202204140002",
                "name": "私立鴻鵠文理短期補習班",
                "county": "桃園市",
                "class": "文理類,外語類,其他類,",
                "students": "國中,國小"
            },
            "geometry": {
                "type": "Point",
                "coordinates": [
                    121.299201,
                    25.054774
                ]
            }
        },
        {
            "type": "Feature",
            "properties": {
                "code": "33202204150001",
                "name": "私立旭揚文理短期補習班",
                "county": "桃園市",
                "class": "外語類,其他類,",
                "students": "國小"
            },
            "geometry": {
                "type": "Point",
                "coordinates": [
                    121.252332,
                    24.918183
                ]
            }
        },
        {
            "type": "Feature",
            "properties": {
                "code": "33202205020001",
                "name": "私立雪米文理短期補習班",
                "county": "桃園市",
                "class": "文理類,",
                "students": "高中,國中,國小"
            },
            "geometry": {
                "type": "Point",
                "coordinates": [
                    121.318627,
                    24.995491
                ]
            }
        },
        {
            "type": "Feature",
            "properties": {
                "code": "33202205040001",
                "name": "私立科思文理短期補習班",
                "county": "桃園市",
                "class": "文理類,",
                "students": "國中"
            },
            "geometry": {
                "type": "Point",
                "coordinates": [
                    121.296953,
                    24.956869
                ]
            }
        },
        {
            "type": "Feature",
            "properties": {
                "code": "33202205050001",
                "name": "私立金赫文理短期補習班",
                "county": "桃園市",
                "class": "文理類,",
                "students": "國中"
            },
            "geometry": {
                "type": "Point",
                "coordinates": [
                    121.230103,
                    24.949545
                ]
            }
        },
        {
            "type": "Feature",
            "properties": {
                "code": "33202205090001",
                "name": "學旅文創有限公司附設私立舞動世界藝文技藝短期補習班",
                "county": "桃園市",
                "class": "音樂、舞蹈類,",
                "students": "成人(18歲以上),國小"
            },
            "geometry": {
                "type": "Point",
                "coordinates": [
                    121.297527,
                    25.018779
                ]
            }
        },
        {
            "type": "Feature",
            "properties": {
                "code": "33202205100001",
                "name": "極合教育科技股份有限公司附設私立極上一對一南平文理短期補習班",
                "county": "桃園市",
                "class": "文理類,",
                "students": "國中,高中"
            },
            "geometry": {
                "type": "Point",
                "coordinates": [
                    121.293145,
                    25.016124
                ]
            }
        },
        {
            "type": "Feature",
            "properties": {
                "code": "33202205190001",
                "name": "何嘉仁文教事業股份有限公司附設私立華亞文理短期補習班",
                "county": "桃園市",
                "class": "文理類,外語類,",
                "students": "國小"
            },
            "geometry": {
                "type": "Point",
                "coordinates": [
                    121.382222,
                    25.048822
                ]
            }
        },
        {
            "type": "Feature",
            "properties": {
                "code": "33202205200001",
                "name": "私立辰米技藝短期補習班",
                "county": "桃園市",
                "class": "美術、書法、攝影、美工設計、圍棋類,",
                "students": "國小,國中"
            },
            "geometry": {
                "type": "Point",
                "coordinates": [
                    121.289812,
                    24.88201
                ]
            }
        },
        {
            "type": "Feature",
            "properties": {
                "code": "33202205270001",
                "name": "私立帝逵文理技藝短期補習班",
                "county": "桃園市",
                "class": "文理類,外語類,音樂、舞蹈類,美術、書法、攝影、美工設計、圍棋類,",
                "students": "國小,國小、國中、高中"
            },
            "geometry": {
                "type": "Point",
                "coordinates": [
                    121.299279,
                    25.020346
                ]
            }
        },
        {
            "type": "Feature",
            "properties": {
                "code": "33202205300001",
                "name": "青山塾股份有限公司附設私立青山塾文理短期補習班",
                "county": "桃園市",
                "class": "文理類,外語類,",
                "students": "國小,國中,高中"
            },
            "geometry": {
                "type": "Point",
                "coordinates": [
                    121.38837,
                    25.040588
                ]
            }
        },
        {
            "type": "Feature",
            "properties": {
                "code": "33202206100001",
                "name": "私立諾異斯音樂技藝短期補習班",
                "county": "桃園市",
                "class": "音樂、舞蹈類,",
                "students": "國小至成人"
            },
            "geometry": {
                "type": "Point",
                "coordinates": [
                    121.255711,
                    25.024702
                ]
            }
        },
        {
            "type": "Feature",
            "properties": {
                "code": "33202206160001",
                "name": "私立李萬文理短期補習班",
                "county": "桃園市",
                "class": "文理類,",
                "students": "國小,國中"
            },
            "geometry": {
                "type": "Point",
                "coordinates": [
                    121.216643,
                    24.857304
                ]
            }
        },
        {
            "type": "Feature",
            "properties": {
                "code": "33202206160002",
                "name": "私立閎墨文理短期補習班",
                "county": "桃園市",
                "class": "文理類,外語類,其他類,",
                "students": "國小,國中"
            },
            "geometry": {
                "type": "Point",
                "coordinates": [
                    121.207334,
                    24.951363
                ]
            }
        },
        {
            "type": "Feature",
            "properties": {
                "code": "33202206200001",
                "name": "私立起點文理短期補習班",
                "county": "桃園市",
                "class": "文理類,",
                "students": "國中,高中"
            },
            "geometry": {
                "type": "Point",
                "coordinates": [
                    121.288322,
                    24.990449
                ]
            }
        },
        {
            "type": "Feature",
            "properties": {
                "code": "33202206220001",
                "name": "私立誠禎文理短期補習班",
                "county": "桃園市",
                "class": "文理類,外語類,",
                "students": "國小,國中"
            },
            "geometry": {
                "type": "Point",
                "coordinates": [
                    121.217661,
                    24.943608
                ]
            }
        },
        {
            "type": "Feature",
            "properties": {
                "code": "33202206230001",
                "name": "私立精銳技藝短期補習班",
                "county": "桃園市",
                "class": "美術、書法、攝影、美工設計、圍棋類,",
                "students": "國小"
            },
            "geometry": {
                "type": "Point",
                "coordinates": [
                    121.293348,
                    25.022089
                ]
            }
        },
        {
            "type": "Feature",
            "properties": {
                "code": "33202207010001",
                "name": "私立芸軒文理技藝短期補習班仁和分班",
                "county": "桃園市",
                "class": "外語類,音樂、舞蹈類,",
                "students": "國小"
            },
            "geometry": {
                "type": "Point",
                "coordinates": [
                    121.275282,
                    24.898726
                ]
            }
        },
        {
            "type": "Feature",
            "properties": {
                "code": "33202207050001",
                "name": "品宏事業有限公司附設私立品宏文理短期補習班",
                "county": "桃園市",
                "class": "文理類,外語類,",
                "students": "國中,國小,高中"
            },
            "geometry": {
                "type": "Point",
                "coordinates": [
                    121.258071,
                    24.968082
                ]
            }
        },
        {
            "type": "Feature",
            "properties": {
                "code": "33202207070001",
                "name": "私立才華文理短期補習班",
                "county": "桃園市",
                "class": "文理類,外語類,",
                "students": "國中,國小"
            },
            "geometry": {
                "type": "Point",
                "coordinates": [
                    121.373058,
                    25.055813
                ]
            }
        },
        {
            "type": "Feature",
            "properties": {
                "code": "33202207210001",
                "name": "私立儀傑美術數學技藝文理短期補習班",
                "county": "桃園市",
                "class": "文理類,美術、書法、攝影、美工設計、圍棋類,",
                "students": "國小,國中,高中"
            },
            "geometry": {
                "type": "Point",
                "coordinates": [
                    121.298266,
                    25.050471
                ]
            }
        },
        {
            "type": "Feature",
            "properties": {
                "code": "33202207290001",
                "name": "赫連電腦有限公司附設私立赫連技藝短期補習班",
                "county": "桃園市",
                "class": "資訊類,美術、書法、攝影、美工設計、圍棋類,其他類,",
                "students": "成人(18歲以上)"
            },
            "geometry": {
                "type": "Point",
                "coordinates": [
                    121.224391,
                    24.955843
                ]
            }
        },
        {
            "type": "Feature",
            "properties": {
                "code": "33202208170001",
                "name": "極合教育科技股份有限公司附設私立極上一對一桃中文理短期補習班",
                "county": "桃園市",
                "class": "文理類,",
                "students": "國中,高中"
            },
            "geometry": {
                "type": "Point",
                "coordinates": [
                    121.299722,
                    25.013107
                ]
            }
        },
        {
            "type": "Feature",
            "properties": {
                "code": "33202208170002",
                "name": "私立乖乖文理技藝短期補習班",
                "county": "桃園市",
                "class": "文理類,外語類,美術、書法、攝影、美工設計、圍棋類,",
                "students": "國小,成人(18歲以上)"
            },
            "geometry": {
                "type": "Point",
                "coordinates": [
                    121.251968,
                    24.987031
                ]
            }
        },
        {
            "type": "Feature",
            "properties": {
                "code": "33202208190001",
                "name": "私立草新文理短期補習班",
                "county": "桃園市",
                "class": "文理類,外語類,",
                "students": "國小,國中"
            },
            "geometry": {
                "type": "Point",
                "coordinates": [
                    121.142681,
                    25.04549
                ]
            }
        },
        {
            "type": "Feature",
            "properties": {
                "code": "33202208190002",
                "name": "私立愛苙薇文理短期補習班",
                "county": "桃園市",
                "class": "外語類,",
                "students": "國小"
            },
            "geometry": {
                "type": "Point",
                "coordinates": [
                    121.227019,
                    24.944084
                ]
            }
        },
        {
            "type": "Feature",
            "properties": {
                "code": "33202208190003",
                "name": "私立真藝技藝短期補習班",
                "county": "桃園市",
                "class": "美術、書法、攝影、美工設計、圍棋類,",
                "students": "成人(18歲以上)"
            },
            "geometry": {
                "type": "Point",
                "coordinates": [
                    121.225542,
                    24.957543
                ]
            }
        },
        {
            "type": "Feature",
            "properties": {
                "code": "33202208220001",
                "name": "私立築誠文理短期補習班",
                "county": "桃園市",
                "class": "文理類,",
                "students": "高中"
            },
            "geometry": {
                "type": "Point",
                "coordinates": [
                    121.226435,
                    24.955347
                ]
            }
        },
        {
            "type": "Feature",
            "properties": {
                "code": "33202208230001",
                "name": "私立奧首華文理短期補習班",
                "county": "桃園市",
                "class": "文理類,",
                "students": "國小"
            },
            "geometry": {
                "type": "Point",
                "coordinates": [
                    121.315837,
                    25.018863
                ]
            }
        },
        {
            "type": "Feature",
            "properties": {
                "code": "33202209010001",
                "name": "私立自強桃一文理短期補習班",
                "county": "桃園市",
                "class": "文理類,",
                "students": "高中"
            },
            "geometry": {
                "type": "Point",
                "coordinates": [
                    121.311935,
                    24.99244
                ]
            }
        },
        {
            "type": "Feature",
            "properties": {
                "code": "33202209270001",
                "name": "私立興儒文理短期補習班藝文分班",
                "county": "桃園市",
                "class": "文理類,外語類,其他類,",
                "students": "國小,高中,國中"
            },
            "geometry": {
                "type": "Point",
                "coordinates": [
                    121.302188,
                    25.013426
                ]
            }
        },
        {
            "type": "Feature",
            "properties": {
                "code": "33202209270002",
                "name": "私立興儒文理短期補習班市府二分班",
                "county": "桃園市",
                "class": "文理類,外語類,其他類,",
                "students": "國小,國中,高中"
            },
            "geometry": {
                "type": "Point",
                "coordinates": [
                    121.302263,
                    24.990804
                ]
            }
        },
        {
            "type": "Feature",
            "properties": {
                "code": "33202209270003",
                "name": "私立李紹陽西門文理短期補習班",
                "county": "桃園市",
                "class": "文理類,外語類,其他類,",
                "students": "國小,國中,高中"
            },
            "geometry": {
                "type": "Point",
                "coordinates": [
                    121.304077,
                    24.9923
                ]
            }
        },
        {
            "type": "Feature",
            "properties": {
                "code": "33202209270004",
                "name": "私立皮克西文理技藝短期補習班",
                "county": "桃園市",
                "class": "文理類,音樂、舞蹈類,美術、書法、攝影、美工設計、圍棋類,",
                "students": "國小,國中,高中,成人(18歲以上)"
            },
            "geometry": {
                "type": "Point",
                "coordinates": [
                    121.288836,
                    24.997116
                ]
            }
        },
        {
            "type": "Feature",
            "properties": {
                "code": "33202210210001",
                "name": "私立遊牧文理短期補習班",
                "county": "桃園市",
                "class": "文理類,",
                "students": "國小,國中,高中"
            },
            "geometry": {
                "type": "Point",
                "coordinates": [
                    121.299367,
                    25.022071
                ]
            }
        },
        {
            "type": "Feature",
            "properties": {
                "code": "33202210210002",
                "name": "私立貝兒語文文理短期補習班",
                "county": "桃園市",
                "class": "外語類,",
                "students": "國小"
            },
            "geometry": {
                "type": "Point",
                "coordinates": [
                    121.288936,
                    24.998245
                ]
            }
        },
        {
            "type": "Feature",
            "properties": {
                "code": "33202211110001",
                "name": "私立有形有色文理技藝短期補習班",
                "county": "桃園市",
                "class": "文理類,外語類,美術、書法、攝影、美工設計、圍棋類,",
                "students": "小一至成人,國小,國中"
            },
            "geometry": {
                "type": "Point",
                "coordinates": [
                    121.384382,
                    25.055438
                ]
            }
        },
        {
            "type": "Feature",
            "properties": {
                "code": "33202211140001",
                "name": "私立等等插畫技藝文理短期補習班",
                "county": "桃園市",
                "class": "文理類,美術、書法、攝影、美工設計、圍棋類,",
                "students": "國小,高中,成人(18歲以上),國中"
            },
            "geometry": {
                "type": "Point",
                "coordinates": [
                    121.301367,
                    25.051096
                ]
            }
        },
        {
            "type": "Feature",
            "properties": {
                "code": "33202211240001",
                "name": "私立愛玩藝翻轉教室技藝文理短期補習班",
                "county": "桃園市",
                "class": "文理類,外語類,美術、書法、攝影、美工設計、圍棋類,",
                "students": "國小"
            },
            "geometry": {
                "type": "Point",
                "coordinates": [
                    121.207926,
                    25.001756
                ]
            }
        },
        {
            "type": "Feature",
            "properties": {
                "code": "33202212010001",
                "name": "私立興儒文理短期補習班埔心分班",
                "county": "桃園市",
                "class": "文理類,",
                "students": "國小,國中,高中"
            },
            "geometry": {
                "type": "Point",
                "coordinates": [
                    121.178505,
                    24.90778
                ]
            }
        },
        {
            "type": "Feature",
            "properties": {
                "code": "33202212080001",
                "name": "私立菲比斯文理短期補習班",
                "county": "桃園市",
                "class": "文理類,",
                "students": "國小,國中"
            },
            "geometry": {
                "type": "Point",
                "coordinates": [
                    121.168819,
                    24.960183
                ]
            }
        },
        {
            "type": "Feature",
            "properties": {
                "code": "33202212140001",
                "name": "私立芮宇文理短期補習班",
                "county": "桃園市",
                "class": "文理類,外語類,",
                "students": "國小"
            },
            "geometry": {
                "type": "Point",
                "coordinates": [
                    121.220579,
                    24.860375
                ]
            }
        },
        {
            "type": "Feature",
            "properties": {
                "code": "33202212260001",
                "name": "粒豆美語文教股份有限公司附設私立粒豆文理短期補習班",
                "county": "桃園市",
                "class": "文理類,外語類,其他類,",
                "students": "國小,國中"
            },
            "geometry": {
                "type": "Point",
                "coordinates": [
                    121.292792,
                    24.999197
                ]
            }
        },
        {
            "type": "Feature",
            "properties": {
                "code": "33202212260002",
                "name": "私立同學家文理短期補習班",
                "county": "桃園市",
                "class": "文理類,外語類,",
                "students": "國中,國小"
            },
            "geometry": {
                "type": "Point",
                "coordinates": [
                    121.217003,
                    25.005334
                ]
            }
        },
        {
            "type": "Feature",
            "properties": {
                "code": "33202212260003",
                "name": "私立心苑文理短期補習班",
                "county": "桃園市",
                "class": "文理類,外語類,",
                "students": "國小,國中"
            },
            "geometry": {
                "type": "Point",
                "coordinates": [
                    121.216149,
                    25.005281
                ]
            }
        },
        {
            "type": "Feature",
            "properties": {
                "code": "33202212280001",
                "name": "私立棧棧美語文理短期補習班",
                "county": "桃園市",
                "class": "文理類,",
                "students": "國小"
            },
            "geometry": {
                "type": "Point",
                "coordinates": [
                    121.212151,
                    25.005897
                ]
            }
        },
        {
            "type": "Feature",
            "properties": {
                "code": "33202301170001",
                "name": "私立福克斯文理短期補習班旗艦分班",
                "county": "桃園市",
                "class": "文理類,外語類,",
                "students": "國小"
            },
            "geometry": {
                "type": "Point",
                "coordinates": [
                    121.220468,
                    24.964171
                ]
            }
        },
        {
            "type": "Feature",
            "properties": {
                "code": "33202301300001",
                "name": "私立巡禮之年音樂 技藝短期補習班",
                "county": "桃園市",
                "class": "音樂、舞蹈類,",
                "students": "國小,國中,高中,成人(18歲以上)"
            },
            "geometry": {
                "type": "Point",
                "coordinates": [
                    121.240305,
                    24.961376
                ]
            }
        },
        {
            "type": "Feature",
            "properties": {
                "code": "33202302030001",
                "name": "私立頌博識文理短期補習班",
                "county": "桃園市",
                "class": "文理類,外語類,",
                "students": "國小,國中,高中"
            },
            "geometry": {
                "type": "Point",
                "coordinates": [
                    121.232362,
                    24.967968
                ]
            }
        },
        {
            "type": "Feature",
            "properties": {
                "code": "33202302070001",
                "name": "私立逗點極光文理短期補習班",
                "county": "桃園市",
                "class": "文理類,",
                "students": "國小,國中"
            },
            "geometry": {
                "type": "Point",
                "coordinates": [
                    121.201948,
                    24.952269
                ]
            }
        },
        {
            "type": "Feature",
            "properties": {
                "code": "33202302100001",
                "name": "私立逗點展翅文理短期補習班",
                "county": "桃園市",
                "class": "文理類,",
                "students": "國小"
            },
            "geometry": {
                "type": "Point",
                "coordinates": [
                    121.219061,
                    25.01952
                ]
            }
        },
        {
            "type": "Feature",
            "properties": {
                "code": "33202302130001",
                "name": "私立育碩文理短期補習班",
                "county": "桃園市",
                "class": "文理類,",
                "students": "國小,國中"
            },
            "geometry": {
                "type": "Point",
                "coordinates": [
                    121.298558,
                    25.055229
                ]
            }
        },
        {
            "type": "Feature",
            "properties": {
                "code": "33202302150001",
                "name": "私立布萊登文理短期補習班",
                "county": "桃園市",
                "class": "文理類,外語類,",
                "students": "國中,國小"
            },
            "geometry": {
                "type": "Point",
                "coordinates": [
                    121.133173,
                    25.014255
                ]
            }
        },
        {
            "type": "Feature",
            "properties": {
                "code": "33202302150002",
                "name": "私立彩曦文理短期補習班青埔分班",
                "county": "桃園市",
                "class": "文理類,",
                "students": "國小,國中"
            },
            "geometry": {
                "type": "Point",
                "coordinates": [
                    121.214105,
                    25.008495
                ]
            }
        },
        {
            "type": "Feature",
            "properties": {
                "code": "33202302230001",
                "name": "私立弘勗文理短期補習班",
                "county": "桃園市",
                "class": "文理類,外語類,",
                "students": "高中,國小,國中"
            },
            "geometry": {
                "type": "Point",
                "coordinates": [
                    121.166693,
                    24.960531
                ]
            }
        },
        {
            "type": "Feature",
            "properties": {
                "code": "33202302240001",
                "name": "私立跨越文理短期補習班",
                "county": "桃園市",
                "class": "文理類,",
                "students": "國小,國小、國中、高中"
            },
            "geometry": {
                "type": "Point",
                "coordinates": [
                    121.30015,
                    25.053325
                ]
            }
        },
        {
            "type": "Feature",
            "properties": {
                "code": "33202303080001",
                "name": "私立昊德大業文理短期補習班",
                "county": "桃園市",
                "class": "文理類,",
                "students": "國中"
            },
            "geometry": {
                "type": "Point",
                "coordinates": [
                    121.315503,
                    25.007339
                ]
            }
        },
        {
            "type": "Feature",
            "properties": {
                "code": "33202303250001",
                "name": "私立育冠文理短期補習班",
                "county": "桃園市",
                "class": "文理類,",
                "students": "國小,國中,高中"
            },
            "geometry": {
                "type": "Point",
                "coordinates": [
                    121.292085,
                    25.040917
                ]
            }
        },
        {
            "type": "Feature",
            "properties": {
                "code": "33202303250002",
                "name": "私立嘉德琳渴望技藝文理短期補習班",
                "county": "桃園市",
                "class": "文理類,音樂、舞蹈類,",
                "students": "國小"
            },
            "geometry": {
                "type": "Point",
                "coordinates": [
                    121.184487,
                    24.841055
                ]
            }
        },
        {
            "type": "Feature",
            "properties": {
                "code": "33202303270001",
                "name": "私立傑聖大興文理技藝短期補習班",
                "county": "桃園市",
                "class": "文理類,外語類,美術、書法、攝影、美工設計、圍棋類,",
                "students": "國小,國中"
            },
            "geometry": {
                "type": "Point",
                "coordinates": [
                    121.299297,
                    25.011593
                ]
            }
        },
        {
            "type": "Feature",
            "properties": {
                "code": "33202303270002",
                "name": "朝陽富元教育股份有限公司附設私立朝揚文理短期補習班中路分班",
                "county": "桃園市",
                "class": "文理類,",
                "students": "國小,國中"
            },
            "geometry": {
                "type": "Point",
                "coordinates": [
                    121.291984,
                    24.998943
                ]
            }
        },
        {
            "type": "Feature",
            "properties": {
                "code": "33202304060001",
                "name": "私立喬恩美語文理短期補習班",
                "county": "桃園市",
                "class": "外語類,",
                "students": "國小"
            },
            "geometry": {
                "type": "Point",
                "coordinates": [
                    121.303529,
                    24.966045
                ]
            }
        },
        {
            "type": "Feature",
            "properties": {
                "code": "33202304250001",
                "name": "私立澧森文理短期補習班",
                "county": "桃園市",
                "class": "文理類,",
                "students": "國小"
            },
            "geometry": {
                "type": "Point",
                "coordinates": [
                    121.219242,
                    25.023443
                ]
            }
        },
        {
            "type": "Feature",
            "properties": {
                "code": "33202304280001",
                "name": "私立睿儀文理短期補習班",
                "county": "桃園市",
                "class": "文理類,外語類,",
                "students": "國小,國中"
            },
            "geometry": {
                "type": "Point",
                "coordinates": [
                    121.166576,
                    24.959309
                ]
            }
        },
        {
            "type": "Feature",
            "properties": {
                "code": "33202304280002",
                "name": "私立祥耀文理短期補習班",
                "county": "桃園市",
                "class": "文理類,外語類,",
                "students": "國小,國中"
            },
            "geometry": {
                "type": "Point",
                "coordinates": [
                    121.179994,
                    24.988809
                ]
            }
        },
        {
            "type": "Feature",
            "properties": {
                "code": "33202305020001",
                "name": "私立衛斯理文理語文短期補習班",
                "county": "桃園市",
                "class": "外語類,",
                "students": "國小"
            },
            "geometry": {
                "type": "Point",
                "coordinates": [
                    121.289276,
                    25.004949
                ]
            }
        },
        {
            "type": "Feature",
            "properties": {
                "code": "33202305040001",
                "name": "私立傑聖升文文理短期補習班",
                "county": "桃園市",
                "class": "文理類,外語類,其他類,",
                "students": "國小,國中"
            },
            "geometry": {
                "type": "Point",
                "coordinates": [
                    121.295359,
                    24.957997
                ]
            }
        },
        {
            "type": "Feature",
            "properties": {
                "code": "33202305220001",
                "name": "私立穩上文理短期補習班",
                "county": "桃園市",
                "class": "文理類,",
                "students": "國中,高中"
            },
            "geometry": {
                "type": "Point",
                "coordinates": [
                    121.290121,
                    24.925647
                ]
            }
        },
        {
            "type": "Feature",
            "properties": {
                "code": "33202306010001",
                "name": "私立學文文理短期補習班",
                "county": "桃園市",
                "class": "文理類,外語類,",
                "students": "國小,國中"
            },
            "geometry": {
                "type": "Point",
                "coordinates": [
                    121.145142,
                    24.904895
                ]
            }
        },
        {
            "type": "Feature",
            "properties": {
                "code": "33202306080001",
                "name": "私立沐恩文理短期補習班",
                "county": "桃園市",
                "class": "文理類,外語類,",
                "students": "國小,國中,高中"
            },
            "geometry": {
                "type": "Point",
                "coordinates": [
                    121.22791,
                    24.955727
                ]
            }
        },
        {
            "type": "Feature",
            "properties": {
                "code": "33202306140001",
                "name": "私立遇見舞蹈技藝短期補習班",
                "county": "桃園市",
                "class": "音樂、舞蹈類,",
                "students": "國小,國中,高中及成人"
            },
            "geometry": {
                "type": "Point",
                "coordinates": [
                    121.301123,
                    25.019076
                ]
            }
        },
        {
            "type": "Feature",
            "properties": {
                "code": "33202306160001",
                "name": "品學文化有限公司附設私立孟睿文理短期補習班",
                "county": "桃園市",
                "class": "文理類,",
                "students": "國中,高中,國小"
            },
            "geometry": {
                "type": "Point",
                "coordinates": [
                    121.299429,
                    25.052014
                ]
            }
        },
        {
            "type": "Feature",
            "properties": {
                "code": "33202306200001",
                "name": "高明一對一學習有限公司附設私立高銘一對一文理短期補習班慈文分班",
                "county": "桃園市",
                "class": "文理類,外語類,",
                "students": "高中,國小,國中"
            },
            "geometry": {
                "type": "Point",
                "coordinates": [
                    121.300449,
                    25.011571
                ]
            }
        },
        {
            "type": "Feature",
            "properties": {
                "code": "33202306200002",
                "name": "私立奇異鳥平安短期補習班",
                "county": "桃園市",
                "class": "文理類,外語類,",
                "students": "國小,國中"
            },
            "geometry": {
                "type": "Point",
                "coordinates": [
                    121.3026,
                    24.994015
                ]
            }
        },
        {
            "type": "Feature",
            "properties": {
                "code": "33202306260001",
                "name": "曜暻有限公司附設私立群英文理短期補習班藝文中茂分班",
                "county": "桃園市",
                "class": "文理類,",
                "students": "國中,高中,成人(18歲以上)"
            },
            "geometry": {
                "type": "Point",
                "coordinates": [
                    121.296547,
                    25.013485
                ]
            }
        },
        {
            "type": "Feature",
            "properties": {
                "code": "33202306270001",
                "name": "私立資優勵德文理短期補習班",
                "county": "桃園市",
                "class": "文理類,",
                "students": "國中,高中,國小"
            },
            "geometry": {
                "type": "Point",
                "coordinates": [
                    121.205321,
                    24.954617
                ]
            }
        },
        {
            "type": "Feature",
            "properties": {
                "code": "33202306280001",
                "name": "私立群峰文理短期補習班",
                "county": "桃園市",
                "class": "文理類,",
                "students": "國中、高中"
            },
            "geometry": {
                "type": "Point",
                "coordinates": [
                    121.2209,
                    24.953451
                ]
            }
        },
        {
            "type": "Feature",
            "properties": {
                "code": "33202307060001",
                "name": "私立蘿芙莉文理技藝短期補習班龜山分班",
                "county": "桃園市",
                "class": "文理類,家政、插花、烹飪類,",
                "students": "國小,成人(18歲以上)"
            },
            "geometry": {
                "type": "Point",
                "coordinates": [
                    121.340018,
                    24.991985
                ]
            }
        },
        {
            "type": "Feature",
            "properties": {
                "code": "33202307180001",
                "name": "私立凱洛斯文理短期補習班",
                "county": "桃園市",
                "class": "文理類,",
                "students": "國小,國中"
            },
            "geometry": {
                "type": "Point",
                "coordinates": [
                    121.343287,
                    25.006692
                ]
            }
        },
        {
            "type": "Feature",
            "properties": {
                "code": "33202307200001",
                "name": "私立霆磊文理短期補習班",
                "county": "桃園市",
                "class": "文理類,外語類,",
                "students": "國小"
            },
            "geometry": {
                "type": "Point",
                "coordinates": [
                    121.237927,
                    24.955272
                ]
            }
        },
        {
            "type": "Feature",
            "properties": {
                "code": "33202307250001",
                "name": "私立葛萊文理短期補習班八德分班",
                "county": "桃園市",
                "class": "文理類,外語類,",
                "students": "國小,國中"
            },
            "geometry": {
                "type": "Point",
                "coordinates": [
                    121.299517,
                    24.95869
                ]
            }
        },
        {
            "type": "Feature",
            "properties": {
                "code": "33202307260001",
                "name": "私立智墨文理短期補習班",
                "county": "桃園市",
                "class": "文理類,外語類,",
                "students": "國小,國中"
            },
            "geometry": {
                "type": "Point",
                "coordinates": [
                    121.291465,
                    24.995734
                ]
            }
        },
        {
            "type": "Feature",
            "properties": {
                "code": "33202308230001",
                "name": "私立智森文理短期補習班",
                "county": "桃園市",
                "class": "文理類,外語類,",
                "students": "國小,國中"
            },
            "geometry": {
                "type": "Point",
                "coordinates": [
                    121.318456,
                    24.996841
                ]
            }
        },
        {
            "type": "Feature",
            "properties": {
                "code": "33202308310001",
                "name": "私立騛騰文理短期補習班",
                "county": "桃園市",
                "class": "文理類,",
                "students": "國小"
            },
            "geometry": {
                "type": "Point",
                "coordinates": [
                    121.204364,
                    24.944157
                ]
            }
        },
        {
            "type": "Feature",
            "properties": {
                "code": "33202309080001",
                "name": "高明一對一學習有限公司私立高銘一對一文理短期補習班桃園分班",
                "county": "桃園市",
                "class": "文理類,外語類,",
                "students": "國小,國中,高中"
            },
            "geometry": {
                "type": "Point",
                "coordinates": [
                    121.314726,
                    24.99024
                ]
            }
        },
        {
            "type": "Feature",
            "properties": {
                "code": "33202310020001",
                "name": "私立二聖文理短期補習班",
                "county": "桃園市",
                "class": "文理類,",
                "students": "國小,國中,高中"
            },
            "geometry": {
                "type": "Point",
                "coordinates": [
                    121.200661,
                    25.060963
                ]
            }
        },
        {
            "type": "Feature",
            "properties": {
                "code": "33202310040001",
                "name": "私立津煜文理短期補習班普仁分班",
                "county": "桃園市",
                "class": "文理類,外語類,",
                "students": "國小"
            },
            "geometry": {
                "type": "Point",
                "coordinates": [
                    121.246527,
                    24.949179
                ]
            }
        },
        {
            "type": "Feature",
            "properties": {
                "code": "33202310050001",
                "name": "私立得餘文理短期補習班",
                "county": "桃園市",
                "class": "文理類,",
                "students": "國中,高中,國小"
            },
            "geometry": {
                "type": "Point",
                "coordinates": [
                    121.28797,
                    25.045806
                ]
            }
        },
        {
            "type": "Feature",
            "properties": {
                "code": "33202310060001",
                "name": "私立西門甲子文理短期補習班",
                "county": "桃園市",
                "class": "文理類,外語類,",
                "students": "國小,國中,高中"
            },
            "geometry": {
                "type": "Point",
                "coordinates": [
                    121.304421,
                    24.99732
                ]
            }
        },
        {
            "type": "Feature",
            "properties": {
                "code": "33202310130001",
                "name": "私立學好文理短期補習班",
                "county": "桃園市",
                "class": "文理類,",
                "students": "國中"
            },
            "geometry": {
                "type": "Point",
                "coordinates": [
                    121.2115,
                    24.961048
                ]
            }
        },
        {
            "type": "Feature",
            "properties": {
                "code": "33202310160001",
                "name": "私立專進文理短期補習班",
                "county": "桃園市",
                "class": "文理類,",
                "students": "國中,高中"
            },
            "geometry": {
                "type": "Point",
                "coordinates": [
                    121.200379,
                    25.060958
                ]
            }
        },
        {
            "type": "Feature",
            "properties": {
                "code": "33202310250001",
                "name": "私立學育文理短期補習班育才分班",
                "county": "桃園市",
                "class": "文理類,外語類,",
                "students": "國中,高中,國小"
            },
            "geometry": {
                "type": "Point",
                "coordinates": [
                    121.253663,
                    24.974454
                ]
            }
        },
        {
            "type": "Feature",
            "properties": {
                "code": "33202310310001",
                "name": "私立樂智英語文理短期補習班",
                "county": "桃園市",
                "class": "文理類,外語類,",
                "students": "國小,國中"
            },
            "geometry": {
                "type": "Point",
                "coordinates": [
                    121.363339,
                    25.049896
                ]
            }
        },
        {
            "type": "Feature",
            "properties": {
                "code": "33202311060001",
                "name": "私立福克斯文理短期補習班致遠分班",
                "county": "桃園市",
                "class": "文理類,外語類,",
                "students": "國小"
            },
            "geometry": {
                "type": "Point",
                "coordinates": [
                    121.215393,
                    25.006889
                ]
            }
        },
        {
            "type": "Feature",
            "properties": {
                "code": "33202311060002",
                "name": "華鈞文教事業股份有限公司附設私立華鈞文理短期補習班",
                "county": "桃園市",
                "class": "文理類,外語類,",
                "students": "國小"
            },
            "geometry": {
                "type": "Point",
                "coordinates": [
                    121.213446,
                    25.006547
                ]
            }
        },
        {
            "type": "Feature",
            "properties": {
                "code": "33202311080001",
                "name": "私立橙久文理技藝短期補習班",
                "county": "桃園市",
                "class": "文理類,外語類,美術、書法、攝影、美工設計、圍棋類,",
                "students": "國小,國中"
            },
            "geometry": {
                "type": "Point",
                "coordinates": [
                    121.307447,
                    25.008602
                ]
            }
        },
        {
            "type": "Feature",
            "properties": {
                "code": "33202311130001",
                "name": "私立青峰文理短期補習班",
                "county": "桃園市",
                "class": "文理類,",
                "students": "國小"
            },
            "geometry": {
                "type": "Point",
                "coordinates": [
                    121.223124,
                    25.018786
                ]
            }
        },
        {
            "type": "Feature",
            "properties": {
                "code": "33202312040001",
                "name": "私立育昇大成文理語文短期補習班和平分班",
                "county": "桃園市",
                "class": "文理類,",
                "students": "國中,國小"
            },
            "geometry": {
                "type": "Point",
                "coordinates": [
                    121.30344,
                    24.957581
                ]
            }
        },
        {
            "type": "Feature",
            "properties": {
                "code": "33202312070001",
                "name": "私立才鼎文理短期補習班",
                "county": "桃園市",
                "class": "文理類,",
                "students": "國小,高中,國中"
            },
            "geometry": {
                "type": "Point",
                "coordinates": [
                    121.303229,
                    24.993203
                ]
            }
        },
        {
            "type": "Feature",
            "properties": {
                "code": "33202312120001",
                "name": "私立雷盟德技藝文理短期補習班",
                "county": "桃園市",
                "class": "文理類,美術、書法、攝影、美工設計、圍棋類,",
                "students": "國小"
            },
            "geometry": {
                "type": "Point",
                "coordinates": [
                    121.214353,
                    24.858416
                ]
            }
        },
        {
            "type": "Feature",
            "properties": {
                "code": "33202312210001",
                "name": "私立小立昇文理短期補習班",
                "county": "桃園市",
                "class": "文理類,外語類,",
                "students": "國小,國中"
            },
            "geometry": {
                "type": "Point",
                "coordinates": [
                    121.245984,
                    24.949998
                ]
            }
        },
        {
            "type": "Feature",
            "properties": {
                "code": "33202401030001",
                "name": "得邑投資股份有限公司私立好學習文理短期補習班",
                "county": "桃園市",
                "class": "文理類,",
                "students": "國小,國中,高中"
            },
            "geometry": {
                "type": "Point",
                "coordinates": [
                    121.321254,
                    25.006794
                ]
            }
        },
        {
            "type": "Feature",
            "properties": {
                "code": "33202401080001",
                "name": "私立弘揚文理短期補習班",
                "county": "桃園市",
                "class": "文理類,外語類,",
                "students": "國小,高中,國中"
            },
            "geometry": {
                "type": "Point",
                "coordinates": [
                    121.255993,
                    24.933202
                ]
            }
        },
        {
            "type": "Feature",
            "properties": {
                "code": "33202401170001",
                "name": "私立河馬美術技藝短期補習班",
                "county": "桃園市",
                "class": "美術、書法、攝影、美工設計、圍棋類,",
                "students": "國小,國中至成人"
            },
            "geometry": {
                "type": "Point",
                "coordinates": [
                    121.305542,
                    24.983044
                ]
            }
        },
        {
            "type": "Feature",
            "properties": {
                "code": "33202401220001",
                "name": "私立啟程文理短期補習班",
                "county": "桃園市",
                "class": "文理類,外語類,",
                "students": "國小,高中,國中"
            },
            "geometry": {
                "type": "Point",
                "coordinates": [
                    121.217323,
                    24.865485
                ]
            }
        },
        {
            "type": "Feature",
            "properties": {
                "code": "33202401260001",
                "name": "私立奧首華文理短期補習班快樂分班",
                "county": "桃園市",
                "class": "文理類,外語類,",
                "students": "國小,國中"
            },
            "geometry": {
                "type": "Point",
                "coordinates": [
                    121.316043,
                    25.01738
                ]
            }
        },
        {
            "type": "Feature",
            "properties": {
                "code": "33202401300001",
                "name": "私立千和文理短期補習班",
                "county": "桃園市",
                "class": "文理類,",
                "students": "國中"
            },
            "geometry": {
                "type": "Point",
                "coordinates": [
                    121.213516,
                    24.859681
                ]
            }
        },
        {
            "type": "Feature",
            "properties": {
                "code": "33202401310001",
                "name": "私立一千英文文理短期補習班",
                "county": "桃園市",
                "class": "文理類,外語類,",
                "students": "國中以上,高中,國中英文(國一、國二)、國中會考英文(國三)、英檢證照(國中以上)"
            },
            "geometry": {
                "type": "Point",
                "coordinates": [
                    121.220776,
                    24.945631
                ]
            }
        },
        {
            "type": "Feature",
            "properties": {
                "code": "33202402070001",
                "name": "私立茱莉亞技藝短期補習班",
                "county": "桃園市",
                "class": "音樂、舞蹈類,",
                "students": "小一以上"
            },
            "geometry": {
                "type": "Point",
                "coordinates": [
                    121.297321,
                    25.059968
                ]
            }
        },
        {
            "type": "Feature",
            "properties": {
                "code": "33202402160001",
                "name": "私立龍科國際美語村文理短期補習班",
                "county": "桃園市",
                "class": "文理類,外語類,",
                "students": "國中,國小"
            },
            "geometry": {
                "type": "Point",
                "coordinates": [
                    121.191158,
                    24.877101
                ]
            }
        },
        {
            "type": "Feature",
            "properties": {
                "code": "33202402220001",
                "name": "私立荼荼舞蹈空間技藝短期補習班",
                "county": "桃園市",
                "class": "音樂、舞蹈類,",
                "students": "小一以上,成人(18歲以上)"
            },
            "geometry": {
                "type": "Point",
                "coordinates": [
                    121.223516,
                    25.018372
                ]
            }
        },
        {
            "type": "Feature",
            "properties": {
                "code": "33202402260001",
                "name": "私立嘉成文理短期補習班",
                "county": "桃園市",
                "class": "外語類,其他類,",
                "students": "國小"
            },
            "geometry": {
                "type": "Point",
                "coordinates": [
                    121.299708,
                    24.959934
                ]
            }
        },
        {
            "type": "Feature",
            "properties": {
                "code": "33202403130001",
                "name": "私立上群文理短期補習班",
                "county": "桃園市",
                "class": "文理類,",
                "students": "國小,國中"
            },
            "geometry": {
                "type": "Point",
                "coordinates": [
                    121.297921,
                    25.05496
                ]
            }
        },
        {
            "type": "Feature",
            "properties": {
                "code": "33202403180001",
                "name": "私立武欣文理短期補習班",
                "county": "桃園市",
                "class": "文理類,外語類,",
                "students": "國小,國中"
            },
            "geometry": {
                "type": "Point",
                "coordinates": [
                    121.17615,
                    24.959786
                ]
            }
        },
        {
            "type": "Feature",
            "properties": {
                "code": "33202403190001",
                "name": "私立文恩文理短期補習班",
                "county": "桃園市",
                "class": "外語類,其他類,",
                "students": "國小"
            },
            "geometry": {
                "type": "Point",
                "coordinates": [
                    121.314646,
                    24.981821
                ]
            }
        },
        {
            "type": "Feature",
            "properties": {
                "code": "33202404080001",
                "name": "私立學府音樂技藝短期補習班",
                "county": "桃園市",
                "class": "音樂、舞蹈類,",
                "students": "國小至成人"
            },
            "geometry": {
                "type": "Point",
                "coordinates": [
                    121.24882,
                    24.977817
                ]
            }
        },
        {
            "type": "Feature",
            "properties": {
                "code": "33202404080002",
                "name": "私立方華文理短期補習班楊梅分班",
                "county": "桃園市",
                "class": "文理類,",
                "students": "國小,國中,高中"
            },
            "geometry": {
                "type": "Point",
                "coordinates": [
                    121.144836,
                    24.902348
                ]
            }
        },
        {
            "type": "Feature",
            "properties": {
                "code": "33202404090001",
                "name": "私立快樂家文理短期補習班",
                "county": "桃園市",
                "class": "文理類,",
                "students": "國中,國小"
            },
            "geometry": {
                "type": "Point",
                "coordinates": [
                    121.383024,
                    25.054598
                ]
            }
        },
        {
            "type": "Feature",
            "properties": {
                "code": "33202404100001",
                "name": "私立沐樂文理技藝短期補習班",
                "county": "桃園市",
                "class": "外語類,美術、書法、攝影、美工設計、圍棋類,",
                "students": "國小,成人(18歲以上)"
            },
            "geometry": {
                "type": "Point",
                "coordinates": [
                    121.28699,
                    24.928303
                ]
            }
        },
        {
            "type": "Feature",
            "properties": {
                "code": "33202404170001",
                "name": "私立愛樂藝術坊技藝短期補習班",
                "county": "桃園市",
                "class": "音樂、舞蹈類,美術、書法、攝影、美工設計、圍棋類,",
                "students": "小一至成人"
            },
            "geometry": {
                "type": "Point",
                "coordinates": [
                    121.292366,
                    25.043973
                ]
            }
        },
        {
            "type": "Feature",
            "properties": {
                "code": "33202404190001",
                "name": "私立方華文理短期補習班中壢分班",
                "county": "桃園市",
                "class": "文理類,",
                "students": "國中,高中"
            },
            "geometry": {
                "type": "Point",
                "coordinates": [
                    121.219877,
                    24.950783
                ]
            }
        },
        {
            "type": "Feature",
            "properties": {
                "code": "33202404250001",
                "name": "私立樂捷文理技藝短期補習班",
                "county": "桃園市",
                "class": "文理類,外語類,美術、書法、攝影、美工設計、圍棋類,",
                "students": "國小,國中"
            },
            "geometry": {
                "type": "Point",
                "coordinates": [
                    121.300582,
                    25.023752
                ]
            }
        },
        {
            "type": "Feature",
            "properties": {
                "code": "33202406120001",
                "name": "私立湯瑪士文理短期補習班",
                "county": "桃園市",
                "class": "文理類,外語類,",
                "students": "國小,國中"
            },
            "geometry": {
                "type": "Point",
                "coordinates": [
                    121.284549,
                    24.927857
                ]
            }
        },
        {
            "type": "Feature",
            "properties": {
                "code": "33202406130001",
                "name": "成鋼國際股份有限公司附設私立樂青英語文理短期補習班",
                "county": "桃園市",
                "class": "文理類,外語類,",
                "students": "國小"
            },
            "geometry": {
                "type": "Point",
                "coordinates": [
                    121.381986,
                    25.048502
                ]
            }
        },
        {
            "type": "Feature",
            "properties": {
                "code": "33202406200001",
                "name": "私立嘉分文理短期補習班",
                "county": "桃園市",
                "class": "文理類,外語類,",
                "students": "國小,國小、國中"
            },
            "geometry": {
                "type": "Point",
                "coordinates": [
                    121.217785,
                    24.940696
                ]
            }
        },
        {
            "type": "Feature",
            "properties": {
                "code": "33202406210001",
                "name": "私立上課囉文理短期補習班",
                "county": "桃園市",
                "class": "文理類,外語類,",
                "students": "國小,國中"
            },
            "geometry": {
                "type": "Point",
                "coordinates": [
                    121.226757,
                    24.946358
                ]
            }
        },
        {
            "type": "Feature",
            "properties": {
                "code": "33202406270001",
                "name": "私立麋爾頓文理技藝短期補習班",
                "county": "桃園市",
                "class": "文理類,外語類,資訊類,",
                "students": "國小,成人(18歲以上),國小、國中,國中,高中"
            },
            "geometry": {
                "type": "Point",
                "coordinates": [
                    121.218471,
                    25.019589
                ]
            }
        },
        {
            "type": "Feature",
            "properties": {
                "code": "33202407010001",
                "name": "私立政大聯合文理短期補習班",
                "county": "桃園市",
                "class": "文理類,外語類,",
                "students": "國小,國中"
            },
            "geometry": {
                "type": "Point",
                "coordinates": [
                    121.14779,
                    24.910799
                ]
            }
        },
        {
            "type": "Feature",
            "properties": {
                "code": "33202407010002",
                "name": "私立放學堂文理短期補習班",
                "county": "桃園市",
                "class": "文理類,外語類,",
                "students": "國中,國小"
            },
            "geometry": {
                "type": "Point",
                "coordinates": [
                    121.248079,
                    24.975342
                ]
            }
        },
        {
            "type": "Feature",
            "properties": {
                "code": "33202407020001",
                "name": "私立辰星文理短期補習班領航旗艦分班",
                "county": "桃園市",
                "class": "文理類,外語類,",
                "students": "國小,國中,高中"
            },
            "geometry": {
                "type": "Point",
                "coordinates": [
                    121.214969,
                    25.0058
                ]
            }
        },
        {
            "type": "Feature",
            "properties": {
                "code": "33202407020002",
                "name": "私立興儒文理短期補習班八德分班",
                "county": "桃園市",
                "class": "文理類,",
                "students": "國小,國中"
            },
            "geometry": {
                "type": "Point",
                "coordinates": [
                    121.300071,
                    24.960446
                ]
            }
        },
        {
            "type": "Feature",
            "properties": {
                "code": "33202407040001",
                "name": "私立文山美語文理短期補習班",
                "county": "桃園市",
                "class": "文理類,外語類,",
                "students": "國小"
            },
            "geometry": {
                "type": "Point",
                "coordinates": [
                    121.294129,
                    24.997322
                ]
            }
        },
        {
            "type": "Feature",
            "properties": {
                "code": "33202407040002",
                "name": "私立昇華文理短期補習班",
                "county": "桃園市",
                "class": "文理類,外語類,",
                "students": "國小"
            },
            "geometry": {
                "type": "Point",
                "coordinates": [
                    121.299083,
                    24.9602
                ]
            }
        },
        {
            "type": "Feature",
            "properties": {
                "code": "33202407170001",
                "name": "私立方華文理短期補習班東興分班",
                "county": "桃園市",
                "class": "文理類,外語類,",
                "students": "國小,國中,高中"
            },
            "geometry": {
                "type": "Point",
                "coordinates": [
                    121.229674,
                    24.94939
                ]
            }
        },
        {
            "type": "Feature",
            "properties": {
                "code": "33202407190001",
                "name": "私立方華文理短期補習班信義分班",
                "county": "桃園市",
                "class": "文理類,",
                "students": "國中"
            },
            "geometry": {
                "type": "Point",
                "coordinates": [
                    121.231378,
                    24.950429
                ]
            }
        },
        {
            "type": "Feature",
            "properties": {
                "code": "33202407190002",
                "name": "私立創奇文理短期補習班",
                "county": "桃園市",
                "class": "文理類,",
                "students": "國中"
            },
            "geometry": {
                "type": "Point",
                "coordinates": [
                    121.224019,
                    24.949566
                ]
            }
        },
        {
            "type": "Feature",
            "properties": {
                "code": "33202407190003",
                "name": "私立企鵝家族文理短期補習班國際分班",
                "county": "桃園市",
                "class": "文理類,外語類,",
                "students": "國小,國中"
            },
            "geometry": {
                "type": "Point",
                "coordinates": [
                    121.253236,
                    24.965127
                ]
            }
        },
        {
            "type": "Feature",
            "properties": {
                "code": "33202407260001",
                "name": "私立嘉麒語文文理短期補習班",
                "county": "桃園市",
                "class": "文理類,",
                "students": "國小"
            },
            "geometry": {
                "type": "Point",
                "coordinates": [
                    121.213356,
                    25.005254
                ]
            }
        },
        {
            "type": "Feature",
            "properties": {
                "code": "33202408140001",
                "name": "私立金威文理短期補習班",
                "county": "桃園市",
                "class": "文理類,",
                "students": "國小,國中"
            },
            "geometry": {
                "type": "Point",
                "coordinates": [
                    121.249812,
                    24.974106
                ]
            }
        },
        {
            "type": "Feature",
            "properties": {
                "code": "33202408200001",
                "name": "私立知悉文理短期補習班",
                "county": "桃園市",
                "class": "文理類,外語類,",
                "students": "國小,國中"
            },
            "geometry": {
                "type": "Point",
                "coordinates": [
                    121.225918,
                    24.944985
                ]
            }
        },
        {
            "type": "Feature",
            "properties": {
                "code": "33202408220001",
                "name": "私立科達文理技藝短期補習班",
                "county": "桃園市",
                "class": "文理類,其他類,",
                "students": "國小,國中,高中"
            },
            "geometry": {
                "type": "Point",
                "coordinates": [
                    121.304091,
                    24.967277
                ]
            }
        },
        {
            "type": "Feature",
            "properties": {
                "code": "33202408260001",
                "name": "私立奇士威文理短期補習班",
                "county": "桃園市",
                "class": "文理類,外語類,",
                "students": "國小"
            },
            "geometry": {
                "type": "Point",
                "coordinates": [
                    121.29539,
                    25.047773
                ]
            }
        },
        {
            "type": "Feature",
            "properties": {
                "code": "33202408290001",
                "name": "崝藝術股份有限公司附設私立崝藝術技藝文理短期補習班",
                "county": "桃園市",
                "class": "文理類,外語類,音樂、舞蹈類,",
                "students": "國小,小一至成人,國中"
            },
            "geometry": {
                "type": "Point",
                "coordinates": [
                    121.391924,
                    25.046413
                ]
            }
        },
        {
            "type": "Feature",
            "properties": {
                "code": "33202409040001",
                "name": "勝騰國際文化有限公司附設私立孟林文理短期補習班",
                "county": "桃園市",
                "class": "文理類,外語類,",
                "students": "國小,國中"
            },
            "geometry": {
                "type": "Point",
                "coordinates": [
                    121.205108,
                    24.952532
                ]
            }
        },
        {
            "type": "Feature",
            "properties": {
                "code": "33202409240001",
                "name": "極合教育科技股份有限公司附設私立極上一對一光明文理短期補習班",
                "county": "桃園市",
                "class": "文理類,外語類,",
                "students": "國中,國小,高中"
            },
            "geometry": {
                "type": "Point",
                "coordinates": [
                    121.292743,
                    25.046644
                ]
            }
        },
        {
            "type": "Feature",
            "properties": {
                "code": "33202410110001",
                "name": "私立吉爾堡文理短期補習班",
                "county": "桃園市",
                "class": "文理類,外語類,",
                "students": "國小,國中"
            },
            "geometry": {
                "type": "Point",
                "coordinates": [
                    121.210618,
                    25.004451
                ]
            }
        }
    ]
}