{
    "type": "FeatureCollection",
    "features": [
        {
            "type": "Feature",
            "properties": {
                "code": "33200206110002",
                "name": "私立福華英語會話短期補習班",
                "county": "桃園市",
                "class": "外語類,",
                "students": "國小"
            },
            "geometry": {
                "type": "Point",
                "coordinates": [
                    121.314736,
                    25.013576
                ]
            }
        },
        {
            "type": "Feature",
            "properties": {
                "code": "33200207170825",
                "name": "私立大衛美語會話短期補習班",
                "county": "桃園市",
                "class": "外語類,",
                "students": "成人(18歲以上)"
            },
            "geometry": {
                "type": "Point",
                "coordinates": [
                    121.222838,
                    24.953085
                ]
            }
        },
        {
            "type": "Feature",
            "properties": {
                "code": "33200207190001",
                "name": "私立光華英語會話短期補習班",
                "county": "桃園市",
                "class": "外語類,",
                "students": "國小"
            },
            "geometry": {
                "type": "Point",
                "coordinates": [
                    121.225489,
                    24.964113
                ]
            }
        },
        {
            "type": "Feature",
            "properties": {
                "code": "33200207190002",
                "name": "私立欣明英語會話短期補習班",
                "county": "桃園市",
                "class": "外語類,",
                "students": "國小"
            },
            "geometry": {
                "type": "Point",
                "coordinates": [
                    121.21702,
                    24.957661
                ]
            }
        },
        {
            "type": "Feature",
            "properties": {
                "code": "33200207190007",
                "name": "私立超群英語會話短期補習班",
                "county": "桃園市",
                "class": "外語類,",
                "students": "國小"
            },
            "geometry": {
                "type": "Point",
                "coordinates": [
                    121.310937,
                    24.990386
                ]
            }
        },
        {
            "type": "Feature",
            "properties": {
                "code": "33200207220009",
                "name": "私立高陞英語會話短期補習班",
                "county": "桃園市",
                "class": "外語類,",
                "students": "國小"
            },
            "geometry": {
                "type": "Point",
                "coordinates": [
                    121.303229,
                    24.993203
                ]
            }
        },
        {
            "type": "Feature",
            "properties": {
                "code": "33200207220019",
                "name": "私立葛洛莉英語會話短期補習班",
                "county": "桃園市",
                "class": "外語類,",
                "students": "國小"
            },
            "geometry": {
                "type": "Point",
                "coordinates": [
                    121.223575,
                    24.954734
                ]
            }
        },
        {
            "type": "Feature",
            "properties": {
                "code": "33200207220023",
                "name": "私立大格文理語文短期補習班",
                "county": "桃園市",
                "class": "文理類,外語類,",
                "students": "國小"
            },
            "geometry": {
                "type": "Point",
                "coordinates": [
                    121.208924,
                    24.95646
                ]
            }
        },
        {
            "type": "Feature",
            "properties": {
                "code": "33200207220028",
                "name": "私立隆慶英語短期補習班",
                "county": "桃園市",
                "class": "外語類,",
                "students": "國小"
            },
            "geometry": {
                "type": "Point",
                "coordinates": [
                    121.206424,
                    24.940415
                ]
            }
        },
        {
            "type": "Feature",
            "properties": {
                "code": "33200207220038",
                "name": "地球村出版有限公司桃園分公司附設私立福爾摩沙地球村語文短期補習班",
                "county": "桃園市",
                "class": "外語類,",
                "students": "成人(18歲以上)"
            },
            "geometry": {
                "type": "Point",
                "coordinates": [
                    121.311458,
                    24.992604
                ]
            }
        },
        {
            "type": "Feature",
            "properties": {
                "code": "33200207220041",
                "name": "私立言史弗弘美語文理短期補習班",
                "county": "桃園市",
                "class": "文理類,外語類,",
                "students": "國小,國中"
            },
            "geometry": {
                "type": "Point",
                "coordinates": [
                    121.20591,
                    24.952604
                ]
            }
        },
        {
            "type": "Feature",
            "properties": {
                "code": "33200207220044",
                "name": "私立小太陽成長天地美語短期補習班",
                "county": "桃園市",
                "class": "外語類,",
                "students": "國小"
            },
            "geometry": {
                "type": "Point",
                "coordinates": [
                    121.176937,
                    24.909701
                ]
            }
        },
        {
            "type": "Feature",
            "properties": {
                "code": "33200207220046",
                "name": "私立心夢想文理短期補習班",
                "county": "桃園市",
                "class": "外語類,",
                "students": "國小"
            },
            "geometry": {
                "type": "Point",
                "coordinates": [
                    121.230994,
                    24.964943
                ]
            }
        },
        {
            "type": "Feature",
            "properties": {
                "code": "33200207220047",
                "name": "私立山瀨日語短期補習班",
                "county": "桃園市",
                "class": "外語類,",
                "students": "其他"
            },
            "geometry": {
                "type": "Point",
                "coordinates": [
                    121.225827,
                    24.951602
                ]
            }
        },
        {
            "type": "Feature",
            "properties": {
                "code": "33200207220055",
                "name": "私立欣華英語會話短期補習班",
                "county": "桃園市",
                "class": "外語類,",
                "students": "國小"
            },
            "geometry": {
                "type": "Point",
                "coordinates": [
                    121.306081,
                    24.99491
                ]
            }
        },
        {
            "type": "Feature",
            "properties": {
                "code": "33200207230003",
                "name": "私立清大美語文理短期補習班",
                "county": "桃園市",
                "class": "文理類,外語類,",
                "students": "國小,國中"
            },
            "geometry": {
                "type": "Point",
                "coordinates": [
                    121.222713,
                    24.942245
                ]
            }
        },
        {
            "type": "Feature",
            "properties": {
                "code": "33200207230004",
                "name": "私立聖堡登英語會話短期補習班",
                "county": "桃園市",
                "class": "外語類,",
                "students": "國小"
            },
            "geometry": {
                "type": "Point",
                "coordinates": [
                    121.213817,
                    24.959356
                ]
            }
        },
        {
            "type": "Feature",
            "properties": {
                "code": "33200207230007",
                "name": "私立傑出語文短期補習班",
                "county": "桃園市",
                "class": "外語類,",
                "students": "國小"
            },
            "geometry": {
                "type": "Point",
                "coordinates": [
                    121.210291,
                    24.947391
                ]
            }
        },
        {
            "type": "Feature",
            "properties": {
                "code": "33200207230009",
                "name": "私立一修語文數學短期補習班",
                "county": "桃園市",
                "class": "外語類,",
                "students": "國小"
            },
            "geometry": {
                "type": "Point",
                "coordinates": [
                    121.286908,
                    24.988519
                ]
            }
        },
        {
            "type": "Feature",
            "properties": {
                "code": "33200207230015",
                "name": "私立育華語文文理數學短期補習班",
                "county": "桃園市",
                "class": "文理類,外語類,",
                "students": "國小,國中"
            },
            "geometry": {
                "type": "Point",
                "coordinates": [
                    121.314901,
                    24.98466
                ]
            }
        },
        {
            "type": "Feature",
            "properties": {
                "code": "33200207230016",
                "name": "私立小太陽英語會話短期補習班",
                "county": "桃園市",
                "class": "外語類,",
                "students": "高中階段至成人"
            },
            "geometry": {
                "type": "Point",
                "coordinates": [
                    121.338656,
                    24.994351
                ]
            }
        },
        {
            "type": "Feature",
            "properties": {
                "code": "33200207230022",
                "name": "私立黃老師美語數學文理短期補習班",
                "county": "桃園市",
                "class": "文理類,外語類,其他類,",
                "students": "國小,國中"
            },
            "geometry": {
                "type": "Point",
                "coordinates": [
                    121.301634,
                    24.96707
                ]
            }
        },
        {
            "type": "Feature",
            "properties": {
                "code": "33200207230024",
                "name": "私立陽昇美語短期補習班",
                "county": "桃園市",
                "class": "外語類,",
                "students": "國小"
            },
            "geometry": {
                "type": "Point",
                "coordinates": [
                    121.229901,
                    24.964731
                ]
            }
        },
        {
            "type": "Feature",
            "properties": {
                "code": "33200207230025",
                "name": "私立愛丁堡語文短期補習班",
                "county": "桃園市",
                "class": "外語類,",
                "students": "其他"
            },
            "geometry": {
                "type": "Point",
                "coordinates": [
                    121.23004,
                    24.83415
                ]
            }
        },
        {
            "type": "Feature",
            "properties": {
                "code": "33200207230026",
                "name": "私立小瓢蟲美語短期補習班",
                "county": "桃園市",
                "class": "外語類,",
                "students": "國小"
            },
            "geometry": {
                "type": "Point",
                "coordinates": [
                    121.174663,
                    24.908647
                ]
            }
        },
        {
            "type": "Feature",
            "properties": {
                "code": "33200207230029",
                "name": "私立高傑英語數學電腦文理短期補習班",
                "county": "桃園市",
                "class": "文理類,外語類,資訊類,其他類,",
                "students": "國小,國中,高中"
            },
            "geometry": {
                "type": "Point",
                "coordinates": [
                    121.295087,
                    25.014756
                ]
            }
        },
        {
            "type": "Feature",
            "properties": {
                "code": "33200207230032",
                "name": "中國青年救國團桃園市團務指導委員會附設私立救國團文理技藝短期補習班",
                "county": "桃園市",
                "class": "外語類,資訊類,美容、美髮理髮類,音樂、舞蹈類,商類：珠算、心算、會計,其他類,",
                "students": "成人(18歲以上)"
            },
            "geometry": {
                "type": "Point",
                "coordinates": [
                    121.314256,
                    24.993513
                ]
            }
        },
        {
            "type": "Feature",
            "properties": {
                "code": "33200207230116",
                "name": "私立周佳教文理短期補習班",
                "county": "桃園市",
                "class": "文理類,",
                "students": "國中"
            },
            "geometry": {
                "type": "Point",
                "coordinates": [
                    121.316675,
                    24.996448
                ]
            }
        },
        {
            "type": "Feature",
            "properties": {
                "code": "33200207230123",
                "name": "私立翰林文理短期補習班",
                "county": "桃園市",
                "class": "文理類,",
                "students": "國中"
            },
            "geometry": {
                "type": "Point",
                "coordinates": [
                    121.335716,
                    24.992493
                ]
            }
        },
        {
            "type": "Feature",
            "properties": {
                "code": "33200207230125",
                "name": "私立全勝文理短期補習班",
                "county": "桃園市",
                "class": "文理類,",
                "students": "國中,國小"
            },
            "geometry": {
                "type": "Point",
                "coordinates": [
                    121.260249,
                    24.962095
                ]
            }
        },
        {
            "type": "Feature",
            "properties": {
                "code": "33200207240002",
                "name": "私立菁華文理短期補習班",
                "county": "桃園市",
                "class": "文理類,",
                "students": "國中"
            },
            "geometry": {
                "type": "Point",
                "coordinates": [
                    121.303231,
                    24.993119
                ]
            }
        },
        {
            "type": "Feature",
            "properties": {
                "code": "33200207240013",
                "name": "私立昊德文理語文短期補習班",
                "county": "桃園市",
                "class": "文理類,外語類,",
                "students": "高中,國中"
            },
            "geometry": {
                "type": "Point",
                "coordinates": [
                    121.311358,
                    24.990182
                ]
            }
        },
        {
            "type": "Feature",
            "properties": {
                "code": "33200207240015",
                "name": "私立璇龍文理短期補習班",
                "county": "桃園市",
                "class": "文理類,",
                "students": "國中"
            },
            "geometry": {
                "type": "Point",
                "coordinates": [
                    121.183139,
                    24.90904
                ]
            }
        },
        {
            "type": "Feature",
            "properties": {
                "code": "33200207240024",
                "name": "私立康大電腦文理美語短期補習班",
                "county": "桃園市",
                "class": "文理類,外語類,資訊類,",
                "students": "國小,國中"
            },
            "geometry": {
                "type": "Point",
                "coordinates": [
                    121.138116,
                    25.012167
                ]
            }
        },
        {
            "type": "Feature",
            "properties": {
                "code": "33200207240029",
                "name": "私立日昇文理短期補習班",
                "county": "桃園市",
                "class": "文理類,",
                "students": "國中"
            },
            "geometry": {
                "type": "Point",
                "coordinates": [
                    121.307115,
                    24.999654
                ]
            }
        },
        {
            "type": "Feature",
            "properties": {
                "code": "33200207240031",
                "name": "私立哈佛文理短期補習班",
                "county": "桃園市",
                "class": "文理類,",
                "students": "國中,國小"
            },
            "geometry": {
                "type": "Point",
                "coordinates": [
                    121.225288,
                    24.952123
                ]
            }
        },
        {
            "type": "Feature",
            "properties": {
                "code": "33200207240039",
                "name": "私立禮揚文理美語電腦短期補習班",
                "county": "桃園市",
                "class": "文理類,",
                "students": "其他,高中"
            },
            "geometry": {
                "type": "Point",
                "coordinates": [
                    121.311038,
                    24.99087
                ]
            }
        },
        {
            "type": "Feature",
            "properties": {
                "code": "33200207240043",
                "name": "私立大石門文理短期補習班",
                "county": "桃園市",
                "class": "文理類,",
                "students": "國中"
            },
            "geometry": {
                "type": "Point",
                "coordinates": [
                    121.217601,
                    24.865711
                ]
            }
        },
        {
            "type": "Feature",
            "properties": {
                "code": "33200207240044",
                "name": "私立狀元教室數學文理短期補習班",
                "county": "桃園市",
                "class": "文理類,",
                "students": "國中,國小"
            },
            "geometry": {
                "type": "Point",
                "coordinates": [
                    121.256907,
                    25.024394
                ]
            }
        },
        {
            "type": "Feature",
            "properties": {
                "code": "33200207240047",
                "name": "私立育英文理短期補習班",
                "county": "桃園市",
                "class": "文理類,",
                "students": "國中"
            },
            "geometry": {
                "type": "Point",
                "coordinates": [
                    121.291719,
                    24.882218
                ]
            }
        },
        {
            "type": "Feature",
            "properties": {
                "code": "33200207240051",
                "name": "私立群倫文理語文短期補習班",
                "county": "桃園市",
                "class": "文理類,外語類,",
                "students": "國中,國小"
            },
            "geometry": {
                "type": "Point",
                "coordinates": [
                    121.327181,
                    24.992508
                ]
            }
        },
        {
            "type": "Feature",
            "properties": {
                "code": "33200207240053",
                "name": "優質坮大教育股份有限公司附設私立優質坮大文理短期補習班中興分班",
                "county": "桃園市",
                "class": "文理類,",
                "students": "國中"
            },
            "geometry": {
                "type": "Point",
                "coordinates": [
                    121.289742,
                    24.99547
                ]
            }
        },
        {
            "type": "Feature",
            "properties": {
                "code": "33200207250006",
                "name": "私立誠功文理短期補習班",
                "county": "桃園市",
                "class": "文理類,",
                "students": "國中"
            },
            "geometry": {
                "type": "Point",
                "coordinates": [
                    121.314983,
                    24.990313
                ]
            }
        },
        {
            "type": "Feature",
            "properties": {
                "code": "33200207250010",
                "name": "私立育才文理美語短期補習班",
                "county": "桃園市",
                "class": "文理類,",
                "students": "國小,國中"
            },
            "geometry": {
                "type": "Point",
                "coordinates": [
                    121.298944,
                    24.959121
                ]
            }
        },
        {
            "type": "Feature",
            "properties": {
                "code": "33200207250016",
                "name": "私立諾貝爾文理語文短期補習班",
                "county": "桃園市",
                "class": "文理類,外語類,",
                "students": "國小,國中"
            },
            "geometry": {
                "type": "Point",
                "coordinates": [
                    121.303229,
                    24.993203
                ]
            }
        },
        {
            "type": "Feature",
            "properties": {
                "code": "33200207250018",
                "name": "私立育林文理語文短期補習班",
                "county": "桃園市",
                "class": "文理類,外語類,",
                "students": "國中,國小"
            },
            "geometry": {
                "type": "Point",
                "coordinates": [
                    121.212059,
                    24.946549
                ]
            }
        },
        {
            "type": "Feature",
            "properties": {
                "code": "33200207250019",
                "name": "朝陽富元教育股份有限公司附設私立朝揚文理短期補習班",
                "county": "桃園市",
                "class": "文理類,",
                "students": "國中"
            },
            "geometry": {
                "type": "Point",
                "coordinates": [
                    121.306934,
                    25.006049
                ]
            }
        },
        {
            "type": "Feature",
            "properties": {
                "code": "33200207250021",
                "name": "私立智惠城珠算文理短期補習班",
                "county": "桃園市",
                "class": "文理類,商類：珠算、心算、會計,",
                "students": "國中,國小"
            },
            "geometry": {
                "type": "Point",
                "coordinates": [
                    121.137597,
                    25.018104
                ]
            }
        },
        {
            "type": "Feature",
            "properties": {
                "code": "33200207250027",
                "name": "私立名人電機短期補習班",
                "county": "桃園市",
                "class": "電機、汽車修護、建築、工藝、製圖類,",
                "students": "成人(18歲以上)"
            },
            "geometry": {
                "type": "Point",
                "coordinates": [
                    121.304151,
                    24.992825
                ]
            }
        },
        {
            "type": "Feature",
            "properties": {
                "code": "33200207250032",
                "name": "私立富民機電短期補習班",
                "county": "桃園市",
                "class": "電機、汽車修護、建築、工藝、製圖類,",
                "students": "成人(18歲以上)"
            },
            "geometry": {
                "type": "Point",
                "coordinates": [
                    121.293992,
                    24.990492
                ]
            }
        },
        {
            "type": "Feature",
            "properties": {
                "code": "33200207250037",
                "name": "私立小狀元珠算短期補習班",
                "county": "桃園市",
                "class": "商類：珠算、心算、會計,",
                "students": "國小"
            },
            "geometry": {
                "type": "Point",
                "coordinates": [
                    121.186918,
                    24.917521
                ]
            }
        },
        {
            "type": "Feature",
            "properties": {
                "code": "33200207250039",
                "name": "私立幼屋珠心算短期補習班",
                "county": "桃園市",
                "class": "商類：珠算、心算、會計,",
                "students": "國小"
            },
            "geometry": {
                "type": "Point",
                "coordinates": [
                    121.205748,
                    24.939955
                ]
            }
        },
        {
            "type": "Feature",
            "properties": {
                "code": "33200207250041",
                "name": "私立天才珠算短期補習班",
                "county": "桃園市",
                "class": "商類：珠算、心算、會計,",
                "students": "國小"
            },
            "geometry": {
                "type": "Point",
                "coordinates": [
                    121.143822,
                    24.911325
                ]
            }
        },
        {
            "type": "Feature",
            "properties": {
                "code": "33200207250042",
                "name": "私立新小狀元珠算短期補習班",
                "county": "桃園市",
                "class": "商類：珠算、心算、會計,",
                "students": "國小"
            },
            "geometry": {
                "type": "Point",
                "coordinates": [
                    121.208844,
                    24.954433
                ]
            }
        },
        {
            "type": "Feature",
            "properties": {
                "code": "33200207300018",
                "name": "私立吾師數學美語珠心算短期補習班",
                "county": "桃園市",
                "class": "外語類,商類：珠算、心算、會計,",
                "students": "國小"
            },
            "geometry": {
                "type": "Point",
                "coordinates": [
                    121.31391,
                    24.992739
                ]
            }
        },
        {
            "type": "Feature",
            "properties": {
                "code": "33200207300021",
                "name": "新東海國際科技有限公司附設私立大東海法商短期補習班",
                "county": "桃園市",
                "class": "法政類,商類：珠算、心算、會計,",
                "students": "公職人員考試"
            },
            "geometry": {
                "type": "Point",
                "coordinates": [
                    121.224974,
                    24.953598
                ]
            }
        },
        {
            "type": "Feature",
            "properties": {
                "code": "33200207300024",
                "name": "大龍海文化事業有限公司附設私立大總統法商短期補習班",
                "county": "桃園市",
                "class": "法政類,商類：珠算、心算、會計,",
                "students": "其他"
            },
            "geometry": {
                "type": "Point",
                "coordinates": [
                    121.313748,
                    24.992296
                ]
            }
        },
        {
            "type": "Feature",
            "properties": {
                "code": "33200207300030",
                "name": "私立華誠珠心算短期補習班",
                "county": "桃園市",
                "class": "商類：珠算、心算、會計,",
                "students": "國小"
            },
            "geometry": {
                "type": "Point",
                "coordinates": [
                    121.217253,
                    24.862701
                ]
            }
        },
        {
            "type": "Feature",
            "properties": {
                "code": "33200207300034",
                "name": "私立良門珠心算美語短期補習班",
                "county": "桃園市",
                "class": "外語類,商類：珠算、心算、會計,",
                "students": "國小"
            },
            "geometry": {
                "type": "Point",
                "coordinates": [
                    121.344327,
                    24.996579
                ]
            }
        },
        {
            "type": "Feature",
            "properties": {
                "code": "33200207310024",
                "name": "私立今華美容短期補習班",
                "county": "桃園市",
                "class": "美容、美髮理髮類,",
                "students": "國中"
            },
            "geometry": {
                "type": "Point",
                "coordinates": [
                    121.212935,
                    24.955977
                ]
            }
        },
        {
            "type": "Feature",
            "properties": {
                "code": "33200208020005",
                "name": "私立子愛舞蹈短期補習班",
                "county": "桃園市",
                "class": "音樂、舞蹈類,",
                "students": "國小"
            },
            "geometry": {
                "type": "Point",
                "coordinates": [
                    121.308738,
                    24.994527
                ]
            }
        },
        {
            "type": "Feature",
            "properties": {
                "code": "33200208050002",
                "name": "私立鴻雁舞蹈短期補習班",
                "county": "桃園市",
                "class": "音樂、舞蹈類,",
                "students": "國小"
            },
            "geometry": {
                "type": "Point",
                "coordinates": [
                    121.257274,
                    24.963449
                ]
            }
        },
        {
            "type": "Feature",
            "properties": {
                "code": "33200208050010",
                "name": "私立潮流舞蹈短期補習班",
                "county": "桃園市",
                "class": "音樂、舞蹈類,",
                "students": "其他"
            },
            "geometry": {
                "type": "Point",
                "coordinates": [
                    121.228728,
                    24.957296
                ]
            }
        },
        {
            "type": "Feature",
            "properties": {
                "code": "33200208050030",
                "name": "私立引舞舞蹈短期補習班",
                "county": "桃園市",
                "class": "音樂、舞蹈類,",
                "students": "未填寫"
            },
            "geometry": {
                "type": "Point",
                "coordinates": [
                    121.314897,
                    24.993317
                ]
            }
        },
        {
            "type": "Feature",
            "properties": {
                "code": "33200208050042",
                "name": "巨匠電腦股份有限公司中壢分公司附設私立巨匠電腦短期補習班",
                "county": "桃園市",
                "class": "資訊類,",
                "students": "成人(18歲以上)"
            },
            "geometry": {
                "type": "Point",
                "coordinates": [
                    121.225363,
                    24.956783
                ]
            }
        },
        {
            "type": "Feature",
            "properties": {
                "code": "33200208050043",
                "name": "巨匠電腦股份有限公司附設私立巨將美語短期補習班",
                "county": "桃園市",
                "class": "外語類,",
                "students": "成人(18歲以上)"
            },
            "geometry": {
                "type": "Point",
                "coordinates": [
                    121.314273,
                    24.990269
                ]
            }
        },
        {
            "type": "Feature",
            "properties": {
                "code": "33200208050050",
                "name": "私立中華電腦短期補習班",
                "county": "桃園市",
                "class": "資訊類,",
                "students": "成人(18歲以上)"
            },
            "geometry": {
                "type": "Point",
                "coordinates": [
                    121.309922,
                    24.990355
                ]
            }
        },
        {
            "type": "Feature",
            "properties": {
                "code": "33200208060001",
                "name": "私立一二三速讀短期補習班",
                "county": "桃園市",
                "class": "速讀類,",
                "students": "國中"
            },
            "geometry": {
                "type": "Point",
                "coordinates": [
                    121.313861,
                    24.99305
                ]
            }
        },
        {
            "type": "Feature",
            "properties": {
                "code": "33200208070004",
                "name": "私立萊恩英語短期補習班",
                "county": "桃園市",
                "class": "外語類,",
                "students": "國小"
            },
            "geometry": {
                "type": "Point",
                "coordinates": [
                    121.317104,
                    25.005231
                ]
            }
        },
        {
            "type": "Feature",
            "properties": {
                "code": "33200208070009",
                "name": "私立偉華英語會話短期補習班",
                "county": "桃園市",
                "class": "外語類,",
                "students": "國小"
            },
            "geometry": {
                "type": "Point",
                "coordinates": [
                    121.311739,
                    24.992391
                ]
            }
        },
        {
            "type": "Feature",
            "properties": {
                "code": "33200208200005",
                "name": "私立小森林美語短期補習班",
                "county": "桃園市",
                "class": "外語類,",
                "students": "國小"
            },
            "geometry": {
                "type": "Point",
                "coordinates": [
                    121.203231,
                    24.954815
                ]
            }
        },
        {
            "type": "Feature",
            "properties": {
                "code": "33200208200006",
                "name": "私立佳盈英語短期補習班",
                "county": "桃園市",
                "class": "外語類,",
                "students": "國小"
            },
            "geometry": {
                "type": "Point",
                "coordinates": [
                    121.197005,
                    25.06439
                ]
            }
        },
        {
            "type": "Feature",
            "properties": {
                "code": "33200208200008",
                "name": "私立大金華英語會話短期補習班",
                "county": "桃園市",
                "class": "外語類,",
                "students": "國小"
            },
            "geometry": {
                "type": "Point",
                "coordinates": [
                    121.298806,
                    24.960754
                ]
            }
        },
        {
            "type": "Feature",
            "properties": {
                "code": "33200208200009",
                "name": "私立龍階美語短期補習班",
                "county": "桃園市",
                "class": "外語類,",
                "students": "國小"
            },
            "geometry": {
                "type": "Point",
                "coordinates": [
                    121.303242,
                    24.968471
                ]
            }
        },
        {
            "type": "Feature",
            "properties": {
                "code": "33200208200018",
                "name": "私立史丹佛數學美語文理短期補習班",
                "county": "桃園市",
                "class": "文理類,外語類,其他類,",
                "students": "國小,國中"
            },
            "geometry": {
                "type": "Point",
                "coordinates": [
                    121.256738,
                    24.9527
                ]
            }
        },
        {
            "type": "Feature",
            "properties": {
                "code": "33200208200020",
                "name": "私立二十一世紀美語短期補習班",
                "county": "桃園市",
                "class": "外語類,",
                "students": "國小"
            },
            "geometry": {
                "type": "Point",
                "coordinates": [
                    121.203093,
                    24.952155
                ]
            }
        },
        {
            "type": "Feature",
            "properties": {
                "code": "33200208200025",
                "name": "私立翔安美語珠心算短期補習班",
                "county": "桃園市",
                "class": "外語類,商類：珠算、心算、會計,",
                "students": "國小"
            },
            "geometry": {
                "type": "Point",
                "coordinates": [
                    121.20432,
                    24.895835
                ]
            }
        },
        {
            "type": "Feature",
            "properties": {
                "code": "33200208200026",
                "name": "私立永祥美語短期補習班",
                "county": "桃園市",
                "class": "外語類,",
                "students": "其他"
            },
            "geometry": {
                "type": "Point",
                "coordinates": [
                    121.301979,
                    24.999811
                ]
            }
        },
        {
            "type": "Feature",
            "properties": {
                "code": "33200208200035",
                "name": "私立佑林文理短期補習班",
                "county": "桃園市",
                "class": "文理類,",
                "students": "國中,國小"
            },
            "geometry": {
                "type": "Point",
                "coordinates": [
                    121.381771,
                    25.054376
                ]
            }
        },
        {
            "type": "Feature",
            "properties": {
                "code": "33200208200037",
                "name": "私立道勤美語數學文理短期補習班",
                "county": "桃園市",
                "class": "文理類,外語類,",
                "students": "國中,國小"
            },
            "geometry": {
                "type": "Point",
                "coordinates": [
                    121.342389,
                    24.994547
                ]
            }
        },
        {
            "type": "Feature",
            "properties": {
                "code": "33200208200038",
                "name": "私立道霖文理短期補習班",
                "county": "桃園市",
                "class": "文理類,",
                "students": "國中"
            },
            "geometry": {
                "type": "Point",
                "coordinates": [
                    121.320595,
                    25.00854
                ]
            }
        },
        {
            "type": "Feature",
            "properties": {
                "code": "33200208200042",
                "name": "私立葉老師文理美語珠算短期補習班",
                "county": "桃園市",
                "class": "文理類,",
                "students": "國中,國小"
            },
            "geometry": {
                "type": "Point",
                "coordinates": [
                    121.248806,
                    24.922481
                ]
            }
        },
        {
            "type": "Feature",
            "properties": {
                "code": "33200208210001",
                "name": "私立大智美語技藝短期補習班",
                "county": "桃園市",
                "class": "外語類,資訊類,商類：珠算、心算、會計,其他類,",
                "students": "國小"
            },
            "geometry": {
                "type": "Point",
                "coordinates": [
                    121.266053,
                    24.956413
                ]
            }
        },
        {
            "type": "Feature",
            "properties": {
                "code": "33200208210002",
                "name": "私立建德文理美語短期補習班",
                "county": "桃園市",
                "class": "文理類,外語類,",
                "students": "國小,國中"
            },
            "geometry": {
                "type": "Point",
                "coordinates": [
                    121.314421,
                    24.979236
                ]
            }
        },
        {
            "type": "Feature",
            "properties": {
                "code": "33200208210004",
                "name": "私立艾特文理短期補習班",
                "county": "桃園市",
                "class": "外語類,",
                "students": "國小"
            },
            "geometry": {
                "type": "Point",
                "coordinates": [
                    121.230853,
                    24.950136
                ]
            }
        },
        {
            "type": "Feature",
            "properties": {
                "code": "33200208210005",
                "name": "私立布拉姆珠心算短期補習班",
                "county": "桃園市",
                "class": "商類：珠算、心算、會計,",
                "students": "國小"
            },
            "geometry": {
                "type": "Point",
                "coordinates": [
                    121.315093,
                    24.983801
                ]
            }
        },
        {
            "type": "Feature",
            "properties": {
                "code": "33200208210012",
                "name": "私立勁草美語短期補習班",
                "county": "桃園市",
                "class": "外語類,",
                "students": "國小"
            },
            "geometry": {
                "type": "Point",
                "coordinates": [
                    121.29083,
                    24.987003
                ]
            }
        },
        {
            "type": "Feature",
            "properties": {
                "code": "33200208210013",
                "name": "私立加大美語珠心算短期補習班",
                "county": "桃園市",
                "class": "外語類,商類：珠算、心算、會計,",
                "students": "國小"
            },
            "geometry": {
                "type": "Point",
                "coordinates": [
                    121.205282,
                    24.953762
                ]
            }
        },
        {
            "type": "Feature",
            "properties": {
                "code": "33200208210016",
                "name": "私立文佑語文文理數學短期補習班",
                "county": "桃園市",
                "class": "文理類,外語類,",
                "students": "國小,高中"
            },
            "geometry": {
                "type": "Point",
                "coordinates": [
                    121.269982,
                    24.884053
                ]
            }
        },
        {
            "type": "Feature",
            "properties": {
                "code": "33200208270003",
                "name": "私立美爾頓美語短期補習班",
                "county": "桃園市",
                "class": "外語類,",
                "students": "國小"
            },
            "geometry": {
                "type": "Point",
                "coordinates": [
                    121.203121,
                    24.91663
                ]
            }
        },
        {
            "type": "Feature",
            "properties": {
                "code": "33200208270004",
                "name": "私立南華英語會話短期補習班",
                "county": "桃園市",
                "class": "外語類,",
                "students": "國小"
            },
            "geometry": {
                "type": "Point",
                "coordinates": [
                    121.290188,
                    25.04726
                ]
            }
        },
        {
            "type": "Feature",
            "properties": {
                "code": "33200208270005",
                "name": "私立長源英語會話短期補習班",
                "county": "桃園市",
                "class": "外語類,",
                "students": "國小"
            },
            "geometry": {
                "type": "Point",
                "coordinates": [
                    121.296173,
                    25.043977
                ]
            }
        },
        {
            "type": "Feature",
            "properties": {
                "code": "33200208270007",
                "name": "私立輔仁文理美語數學短期補習班",
                "county": "桃園市",
                "class": "文理類,外語類,",
                "students": "國中,國小"
            },
            "geometry": {
                "type": "Point",
                "coordinates": [
                    121.106305,
                    24.97466
                ]
            }
        },
        {
            "type": "Feature",
            "properties": {
                "code": "33200208270011",
                "name": "私立美亞美語短期補習班",
                "county": "桃園市",
                "class": "外語類,",
                "students": "國小"
            },
            "geometry": {
                "type": "Point",
                "coordinates": [
                    121.286005,
                    24.882978
                ]
            }
        },
        {
            "type": "Feature",
            "properties": {
                "code": "33200208270017",
                "name": "私立民方文理短期補習班",
                "county": "桃園市",
                "class": "外語類,",
                "students": "國小"
            },
            "geometry": {
                "type": "Point",
                "coordinates": [
                    121.15879,
                    24.909782
                ]
            }
        },
        {
            "type": "Feature",
            "properties": {
                "code": "33200208270018",
                "name": "私立嘉煌美語短期補習班",
                "county": "桃園市",
                "class": "外語類,",
                "students": "國小"
            },
            "geometry": {
                "type": "Point",
                "coordinates": [
                    121.218093,
                    24.865254
                ]
            }
        },
        {
            "type": "Feature",
            "properties": {
                "code": "33200208270019",
                "name": "私立宇成美語文理短期補習班",
                "county": "桃園市",
                "class": "文理類,外語類,",
                "students": "國小,國中"
            },
            "geometry": {
                "type": "Point",
                "coordinates": [
                    121.28917,
                    25.041817
                ]
            }
        },
        {
            "type": "Feature",
            "properties": {
                "code": "33200208270023",
                "name": "私立康鑫文理語文短期補習班",
                "county": "桃園市",
                "class": "文理類,外語類,",
                "students": "國小,國中"
            },
            "geometry": {
                "type": "Point",
                "coordinates": [
                    121.177342,
                    24.909119
                ]
            }
        },
        {
            "type": "Feature",
            "properties": {
                "code": "33200208270024",
                "name": "私立喬加優美語數學短期補習班",
                "county": "桃園市",
                "class": "外語類,",
                "students": "國小"
            },
            "geometry": {
                "type": "Point",
                "coordinates": [
                    121.22512,
                    24.963363
                ]
            }
        },
        {
            "type": "Feature",
            "properties": {
                "code": "33200209110003",
                "name": "私立夏老師文理美語短期補習班",
                "county": "桃園市",
                "class": "文理類,外語類,",
                "students": "國小,國中"
            },
            "geometry": {
                "type": "Point",
                "coordinates": [
                    121.22274,
                    24.942001
                ]
            }
        },
        {
            "type": "Feature",
            "properties": {
                "code": "33200209110005",
                "name": "私立元鉝文理語文短期補習班",
                "county": "桃園市",
                "class": "文理類,",
                "students": "國中"
            },
            "geometry": {
                "type": "Point",
                "coordinates": [
                    121.316714,
                    24.998823
                ]
            }
        },
        {
            "type": "Feature",
            "properties": {
                "code": "33200209110008",
                "name": "私立少芃文理短期補習班",
                "county": "桃園市",
                "class": "文理類,外語類,",
                "students": "國小,國中"
            },
            "geometry": {
                "type": "Point",
                "coordinates": [
                    121.183096,
                    24.909043
                ]
            }
        },
        {
            "type": "Feature",
            "properties": {
                "code": "33200209120011",
                "name": "私立文傑語文珠算短期補習班",
                "county": "桃園市",
                "class": "外語類,商類：珠算、心算、會計,",
                "students": "國小"
            },
            "geometry": {
                "type": "Point",
                "coordinates": [
                    121.251749,
                    24.940718
                ]
            }
        },
        {
            "type": "Feature",
            "properties": {
                "code": "33200209120014",
                "name": "私立林老師美語珠心算短期補習班",
                "county": "桃園市",
                "class": "外語類,商類：珠算、心算、會計,",
                "students": "國小"
            },
            "geometry": {
                "type": "Point",
                "coordinates": [
                    121.151486,
                    24.91137
                ]
            }
        },
        {
            "type": "Feature",
            "properties": {
                "code": "33200209120015",
                "name": "私立宏義文理短期補習班",
                "county": "桃園市",
                "class": "文理類,",
                "students": "國中"
            },
            "geometry": {
                "type": "Point",
                "coordinates": [
                    121.219471,
                    24.94679
                ]
            }
        },
        {
            "type": "Feature",
            "properties": {
                "code": "33200209120017",
                "name": "私立儒林文理短期補習班",
                "county": "桃園市",
                "class": "文理類,",
                "students": "高中"
            },
            "geometry": {
                "type": "Point",
                "coordinates": [
                    121.311916,
                    24.989878
                ]
            }
        },
        {
            "type": "Feature",
            "properties": {
                "code": "33200209120023",
                "name": "私立彭老師美語文理短期補習班",
                "county": "桃園市",
                "class": "外語類,",
                "students": "國中,國小"
            },
            "geometry": {
                "type": "Point",
                "coordinates": [
                    121.254581,
                    24.930406
                ]
            }
        },
        {
            "type": "Feature",
            "properties": {
                "code": "33200209120024",
                "name": "朝陽富元教育股份有限公司附設私立朝揚米其文理短期補習班",
                "county": "桃園市",
                "class": "外語類,",
                "students": "國小"
            },
            "geometry": {
                "type": "Point",
                "coordinates": [
                    121.31711,
                    24.998745
                ]
            }
        },
        {
            "type": "Feature",
            "properties": {
                "code": "33200209130002",
                "name": "私立高群文理美語短期補習班",
                "county": "桃園市",
                "class": "文理類,",
                "students": "國小"
            },
            "geometry": {
                "type": "Point",
                "coordinates": [
                    121.299953,
                    25.011982
                ]
            }
        },
        {
            "type": "Feature",
            "properties": {
                "code": "33200209130007",
                "name": "帆益科技教育股份有限公司附設私立同德文理美語短期補習班",
                "county": "桃園市",
                "class": "文理類,外語類,",
                "students": "國中"
            },
            "geometry": {
                "type": "Point",
                "coordinates": [
                    121.296224,
                    25.016798
                ]
            }
        },
        {
            "type": "Feature",
            "properties": {
                "code": "33200209130010",
                "name": "私立胡老師文理短期補習班",
                "county": "桃園市",
                "class": "文理類,",
                "students": "國中"
            },
            "geometry": {
                "type": "Point",
                "coordinates": [
                    121.220304,
                    24.948668
                ]
            }
        },
        {
            "type": "Feature",
            "properties": {
                "code": "33200209130017",
                "name": "私立親欣語文短期補習班",
                "county": "桃園市",
                "class": "外語類,",
                "students": "國小"
            },
            "geometry": {
                "type": "Point",
                "coordinates": [
                    121.305588,
                    25.000586
                ]
            }
        },
        {
            "type": "Feature",
            "properties": {
                "code": "33200209130023",
                "name": "私立南英珠心算數學美語語文文理短期補習班",
                "county": "桃園市",
                "class": "商類：珠算、心算、會計,",
                "students": "國小,國中"
            },
            "geometry": {
                "type": "Point",
                "coordinates": [
                    121.357718,
                    25.051354
                ]
            }
        },
        {
            "type": "Feature",
            "properties": {
                "code": "33200209130024",
                "name": "私立學揚美語數學文理短期補習班",
                "county": "桃園市",
                "class": "文理類,外語類,",
                "students": "國小,國中"
            },
            "geometry": {
                "type": "Point",
                "coordinates": [
                    121.297106,
                    25.047488
                ]
            }
        },
        {
            "type": "Feature",
            "properties": {
                "code": "33200209130026",
                "name": "私立明志文理短期補習班",
                "county": "桃園市",
                "class": "文理類,",
                "students": "國中"
            },
            "geometry": {
                "type": "Point",
                "coordinates": [
                    121.336541,
                    24.991437
                ]
            }
        },
        {
            "type": "Feature",
            "properties": {
                "code": "33200209130028",
                "name": "私立宇成美語短期補習班光明分班",
                "county": "桃園市",
                "class": "外語類,",
                "students": "國小"
            },
            "geometry": {
                "type": "Point",
                "coordinates": [
                    121.290785,
                    25.038801
                ]
            }
        },
        {
            "type": "Feature",
            "properties": {
                "code": "33200209130032",
                "name": "私立愛德華文理短期補習班",
                "county": "桃園市",
                "class": "文理類,",
                "students": "國中"
            },
            "geometry": {
                "type": "Point",
                "coordinates": [
                    121.332628,
                    24.989137
                ]
            }
        },
        {
            "type": "Feature",
            "properties": {
                "code": "33200209130033",
                "name": "私立思維文理美語短期補習班",
                "county": "桃園市",
                "class": "文理類,外語類,商類：珠算、心算、會計,",
                "students": "國中"
            },
            "geometry": {
                "type": "Point",
                "coordinates": [
                    121.304967,
                    25.005037
                ]
            }
        },
        {
            "type": "Feature",
            "properties": {
                "code": "33200209130034",
                "name": "私立奇瓦迪文理短期補習班",
                "county": "桃園市",
                "class": "文理類,外語類,",
                "students": "國小"
            },
            "geometry": {
                "type": "Point",
                "coordinates": [
                    121.289384,
                    24.985783
                ]
            }
        },
        {
            "type": "Feature",
            "properties": {
                "code": "33200209160001",
                "name": "私立小熊文理語文珠心算數學短期補習班",
                "county": "桃園市",
                "class": "商類：珠算、心算、會計,其他類,",
                "students": "國小,國中"
            },
            "geometry": {
                "type": "Point",
                "coordinates": [
                    121.293342,
                    24.881301
                ]
            }
        },
        {
            "type": "Feature",
            "properties": {
                "code": "33200209160002",
                "name": "朝陽富元教育股份有限公司附設私立朝揚文理短期補習班莊敬分班",
                "county": "桃園市",
                "class": "外語類,",
                "students": "國小"
            },
            "geometry": {
                "type": "Point",
                "coordinates": [
                    121.292884,
                    25.021661
                ]
            }
        },
        {
            "type": "Feature",
            "properties": {
                "code": "33200209160004",
                "name": "私立開普美語作文短期補習班",
                "county": "桃園市",
                "class": "外語類,",
                "students": "國小"
            },
            "geometry": {
                "type": "Point",
                "coordinates": [
                    121.30022,
                    24.959937
                ]
            }
        },
        {
            "type": "Feature",
            "properties": {
                "code": "33200209160006",
                "name": "私立尼爾森美語短期補習班",
                "county": "桃園市",
                "class": "外語類,",
                "students": "國小"
            },
            "geometry": {
                "type": "Point",
                "coordinates": [
                    121.316548,
                    24.995168
                ]
            }
        },
        {
            "type": "Feature",
            "properties": {
                "code": "33200209160009",
                "name": "私立河合日語短期補習班",
                "county": "桃園市",
                "class": "外語類,",
                "students": "其他"
            },
            "geometry": {
                "type": "Point",
                "coordinates": [
                    121.311777,
                    24.99132
                ]
            }
        },
        {
            "type": "Feature",
            "properties": {
                "code": "33200209160011",
                "name": "私立瑋人文理數學語文短期補習班",
                "county": "桃園市",
                "class": "文理類,外語類,商類：珠算、心算、會計,",
                "students": "國中,國小"
            },
            "geometry": {
                "type": "Point",
                "coordinates": [
                    121.292623,
                    24.987598
                ]
            }
        },
        {
            "type": "Feature",
            "properties": {
                "code": "33200209160012",
                "name": "私立碩苑美語短期補習班",
                "county": "桃園市",
                "class": "外語類,",
                "students": "國小"
            },
            "geometry": {
                "type": "Point",
                "coordinates": [
                    121.303242,
                    24.968375
                ]
            }
        },
        {
            "type": "Feature",
            "properties": {
                "code": "33200209160013",
                "name": "私立茁壯美語短期補習班",
                "county": "桃園市",
                "class": "外語類,",
                "students": "成人(18歲以上)"
            },
            "geometry": {
                "type": "Point",
                "coordinates": [
                    121.26011,
                    25.026011
                ]
            }
        },
        {
            "type": "Feature",
            "properties": {
                "code": "33200209160016",
                "name": "私立吳老師文理美語短期補習班",
                "county": "桃園市",
                "class": "文理類,外語類,",
                "students": "國中,國小"
            },
            "geometry": {
                "type": "Point",
                "coordinates": [
                    121.274998,
                    24.977914
                ]
            }
        },
        {
            "type": "Feature",
            "properties": {
                "code": "33200209160024",
                "name": "私立慈園文理美語數學短期補習班",
                "county": "桃園市",
                "class": "文理類,外語類,",
                "students": "國中,國小"
            },
            "geometry": {
                "type": "Point",
                "coordinates": [
                    121.320239,
                    24.977197
                ]
            }
        },
        {
            "type": "Feature",
            "properties": {
                "code": "33200209160031",
                "name": "私立喜樂語文文理短期補習班",
                "county": "桃園市",
                "class": "文理類,外語類,",
                "students": "國小,國中"
            },
            "geometry": {
                "type": "Point",
                "coordinates": [
                    121.215549,
                    24.863123
                ]
            }
        },
        {
            "type": "Feature",
            "properties": {
                "code": "33200209160034",
                "name": "私立福崁英語短期補習班",
                "county": "桃園市",
                "class": "外語類,",
                "students": "國小,成人(18歲以上)"
            },
            "geometry": {
                "type": "Point",
                "coordinates": [
                    121.289281,
                    25.048123
                ]
            }
        },
        {
            "type": "Feature",
            "properties": {
                "code": "33200209160038",
                "name": "私立芙西爾美語文理短期補習班",
                "county": "桃園市",
                "class": "文理類,外語類,",
                "students": "國小,國中"
            },
            "geometry": {
                "type": "Point",
                "coordinates": [
                    121.308685,
                    24.979849
                ]
            }
        },
        {
            "type": "Feature",
            "properties": {
                "code": "33200209160039",
                "name": "私立崇文文理美語短期補習班",
                "county": "桃園市",
                "class": "文理類,外語類,",
                "students": "國中,國小至成人"
            },
            "geometry": {
                "type": "Point",
                "coordinates": [
                    121.166774,
                    24.95709
                ]
            }
        },
        {
            "type": "Feature",
            "properties": {
                "code": "33200209170004",
                "name": "私立潔茜卡文理短期補習班",
                "county": "桃園市",
                "class": "文理類,",
                "students": "國中"
            },
            "geometry": {
                "type": "Point",
                "coordinates": [
                    121.275604,
                    24.981437
                ]
            }
        },
        {
            "type": "Feature",
            "properties": {
                "code": "33200209170009",
                "name": "私立明治語文短期補習班",
                "county": "桃園市",
                "class": "外語類,",
                "students": "成人(18歲以上)"
            },
            "geometry": {
                "type": "Point",
                "coordinates": [
                    121.311916,
                    24.989878
                ]
            }
        },
        {
            "type": "Feature",
            "properties": {
                "code": "33200209170010",
                "name": "私立青宏美語珠心算短期補習班",
                "county": "桃園市",
                "class": "外語類,商類：珠算、心算、會計,",
                "students": "國小"
            },
            "geometry": {
                "type": "Point",
                "coordinates": [
                    121.266952,
                    24.88258
                ]
            }
        },
        {
            "type": "Feature",
            "properties": {
                "code": "33200209180005",
                "name": "私立蘇荷美術短期補習班",
                "county": "桃園市",
                "class": "美術、書法、攝影、美工設計、圍棋類,",
                "students": "國小至成人"
            },
            "geometry": {
                "type": "Point",
                "coordinates": [
                    121.203112,
                    24.951889
                ]
            }
        },
        {
            "type": "Feature",
            "properties": {
                "code": "33200209180006",
                "name": "私立幼全珠心算美語短期補習班",
                "county": "桃園市",
                "class": "商類：珠算、心算、會計,",
                "students": "國小"
            },
            "geometry": {
                "type": "Point",
                "coordinates": [
                    121.204241,
                    24.890723
                ]
            }
        },
        {
            "type": "Feature",
            "properties": {
                "code": "33200209180010",
                "name": "私立文田珠心算短期補習班",
                "county": "桃園市",
                "class": "商類：珠算、心算、會計,",
                "students": "國小"
            },
            "geometry": {
                "type": "Point",
                "coordinates": [
                    121.224737,
                    24.92696
                ]
            }
        },
        {
            "type": "Feature",
            "properties": {
                "code": "33200209180017",
                "name": "私立勝豐美語珠心算短期補習班",
                "county": "桃園市",
                "class": "外語類,商類：珠算、心算、會計,",
                "students": "國小"
            },
            "geometry": {
                "type": "Point",
                "coordinates": [
                    121.185304,
                    24.918548
                ]
            }
        },
        {
            "type": "Feature",
            "properties": {
                "code": "33200209180020",
                "name": "私立東信文理短期補習班",
                "county": "桃園市",
                "class": "文理類,外語類,",
                "students": "國中"
            },
            "geometry": {
                "type": "Point",
                "coordinates": [
                    121.202935,
                    24.952193
                ]
            }
        },
        {
            "type": "Feature",
            "properties": {
                "code": "33200209180023",
                "name": "私立創價美語短期補習班",
                "county": "桃園市",
                "class": "外語類,",
                "students": "國小"
            },
            "geometry": {
                "type": "Point",
                "coordinates": [
                    121.251773,
                    24.917665
                ]
            }
        },
        {
            "type": "Feature",
            "properties": {
                "code": "33200209180031",
                "name": "私立柏德美語短期補習班",
                "county": "桃園市",
                "class": "外語類,",
                "students": "國小"
            },
            "geometry": {
                "type": "Point",
                "coordinates": [
                    121.238995,
                    24.956909
                ]
            }
        },
        {
            "type": "Feature",
            "properties": {
                "code": "33200209180032",
                "name": "私立喬加樂美語數學文理短期補習班-平鎮分班",
                "county": "桃園市",
                "class": "文理類,外語類,",
                "students": "國小,國中"
            },
            "geometry": {
                "type": "Point",
                "coordinates": [
                    121.220151,
                    24.946968
                ]
            }
        },
        {
            "type": "Feature",
            "properties": {
                "code": "33200209180035",
                "name": "社團法人中國青年救國團桃園縣團務指導委員會附設私立語文技藝短期補習班中壢分班",
                "county": "桃園市",
                "class": "外語類,資訊類,美容、美髮理髮類,美術、書法、攝影、美工設計、圍棋類,",
                "students": "成人(18歲以上)"
            },
            "geometry": {
                "type": "Point",
                "coordinates": [
                    121.226598,
                    24.961207
                ]
            }
        },
        {
            "type": "Feature",
            "properties": {
                "code": "33200209250001",
                "name": "私立約瑟芬美語短期補習班",
                "county": "桃園市",
                "class": "外語類,",
                "students": "國小"
            },
            "geometry": {
                "type": "Point",
                "coordinates": [
                    121.319503,
                    25.008051
                ]
            }
        },
        {
            "type": "Feature",
            "properties": {
                "code": "33200209260002",
                "name": "私立溫蒂語文短期補習班",
                "county": "桃園市",
                "class": "外語類,",
                "students": "國小"
            },
            "geometry": {
                "type": "Point",
                "coordinates": [
                    121.311418,
                    24.983114
                ]
            }
        },
        {
            "type": "Feature",
            "properties": {
                "code": "33200209260005",
                "name": "私立大立昇美語短期補習班",
                "county": "桃園市",
                "class": "外語類,",
                "students": "國小"
            },
            "geometry": {
                "type": "Point",
                "coordinates": [
                    121.298741,
                    25.019788
                ]
            }
        },
        {
            "type": "Feature",
            "properties": {
                "code": "33200209270001",
                "name": "私立擊韻音樂短期補習班",
                "county": "桃園市",
                "class": "音樂、舞蹈類,",
                "students": "國小"
            },
            "geometry": {
                "type": "Point",
                "coordinates": [
                    121.217549,
                    24.958227
                ]
            }
        },
        {
            "type": "Feature",
            "properties": {
                "code": "33200210010002",
                "name": "私立達文西美術美語數學文理短期補習班",
                "county": "桃園市",
                "class": "文理類,外語類,美術、書法、攝影、美工設計、圍棋類,商類：珠算、心算、會計,",
                "students": "國小,國中"
            },
            "geometry": {
                "type": "Point",
                "coordinates": [
                    121.2576,
                    24.975978
                ]
            }
        },
        {
            "type": "Feature",
            "properties": {
                "code": "33200210010003",
                "name": "私立貝爾美語文理短期補習班",
                "county": "桃園市",
                "class": "外語類,",
                "students": "國小,國中"
            },
            "geometry": {
                "type": "Point",
                "coordinates": [
                    121.228832,
                    24.963467
                ]
            }
        },
        {
            "type": "Feature",
            "properties": {
                "code": "33200210010008",
                "name": "私立寶美美語短期補習班",
                "county": "桃園市",
                "class": "外語類,",
                "students": "國小"
            },
            "geometry": {
                "type": "Point",
                "coordinates": [
                    121.250677,
                    24.923814
                ]
            }
        },
        {
            "type": "Feature",
            "properties": {
                "code": "33200210010014",
                "name": "私立津煜文理短期補習班",
                "county": "桃園市",
                "class": "外語類,資訊類,",
                "students": "國小"
            },
            "geometry": {
                "type": "Point",
                "coordinates": [
                    121.247175,
                    24.946477
                ]
            }
        },
        {
            "type": "Feature",
            "properties": {
                "code": "33200210030002",
                "name": "私立祥鼎文理美語短期補習班",
                "county": "桃園市",
                "class": "文理類,",
                "students": "國中,國小"
            },
            "geometry": {
                "type": "Point",
                "coordinates": [
                    121.230361,
                    24.949742
                ]
            }
        },
        {
            "type": "Feature",
            "properties": {
                "code": "33200210040001",
                "name": "私立小飛象文理珠心算美語短期補習班",
                "county": "桃園市",
                "class": "文理類,外語類,商類：珠算、心算、會計,",
                "students": "國中,國小"
            },
            "geometry": {
                "type": "Point",
                "coordinates": [
                    121.288621,
                    24.876234
                ]
            }
        },
        {
            "type": "Feature",
            "properties": {
                "code": "33200210040003",
                "name": "私立洪明升學文理短期補習班",
                "county": "桃園市",
                "class": "文理類,",
                "students": "高中,國中"
            },
            "geometry": {
                "type": "Point",
                "coordinates": [
                    121.226183,
                    24.956043
                ]
            }
        },
        {
            "type": "Feature",
            "properties": {
                "code": "33200210040005",
                "name": "私立新超強珠算美語文理短期補習班",
                "county": "桃園市",
                "class": "文理類,外語類,商類：珠算、心算、會計,",
                "students": "國小,國中"
            },
            "geometry": {
                "type": "Point",
                "coordinates": [
                    121.232654,
                    24.874313
                ]
            }
        },
        {
            "type": "Feature",
            "properties": {
                "code": "33200210040006",
                "name": "私立文特蘭語文文理短期補習班",
                "county": "桃園市",
                "class": "外語類,",
                "students": "國小"
            },
            "geometry": {
                "type": "Point",
                "coordinates": [
                    121.257731,
                    25.076794
                ]
            }
        },
        {
            "type": "Feature",
            "properties": {
                "code": "33200210040008",
                "name": "私立丫丫英語短期補習班",
                "county": "桃園市",
                "class": "外語類,",
                "students": "國小"
            },
            "geometry": {
                "type": "Point",
                "coordinates": [
                    121.297739,
                    25.050975
                ]
            }
        },
        {
            "type": "Feature",
            "properties": {
                "code": "33200210040011",
                "name": "私立怡欣音樂短期補習班",
                "county": "桃園市",
                "class": "音樂、舞蹈類,",
                "students": "國中"
            },
            "geometry": {
                "type": "Point",
                "coordinates": [
                    121.213224,
                    24.865721
                ]
            }
        },
        {
            "type": "Feature",
            "properties": {
                "code": "33200210040012",
                "name": "私立維思登語文短期補習班田心分班",
                "county": "桃園市",
                "class": "外語類,其他類,",
                "students": "國小"
            },
            "geometry": {
                "type": "Point",
                "coordinates": [
                    121.292838,
                    24.880649
                ]
            }
        },
        {
            "type": "Feature",
            "properties": {
                "code": "33200210040015",
                "name": "私立學田美語文理短期補習班",
                "county": "桃園市",
                "class": "文理類,",
                "students": "國中,國小"
            },
            "geometry": {
                "type": "Point",
                "coordinates": [
                    121.185663,
                    24.917337
                ]
            }
        },
        {
            "type": "Feature",
            "properties": {
                "code": "33200210040016",
                "name": "私立優越珠心算文理短期補習班",
                "county": "桃園市",
                "class": "文理類,商類：珠算、心算、會計,",
                "students": "國小,國中"
            },
            "geometry": {
                "type": "Point",
                "coordinates": [
                    121.314409,
                    24.983981
                ]
            }
        },
        {
            "type": "Feature",
            "properties": {
                "code": "33200210070003",
                "name": "私立敦煌舞蹈短期補習班",
                "county": "桃園市",
                "class": "音樂、舞蹈類,",
                "students": "成人(18歲以上)"
            },
            "geometry": {
                "type": "Point",
                "coordinates": [
                    121.239565,
                    24.952476
                ]
            }
        },
        {
            "type": "Feature",
            "properties": {
                "code": "33200210070004",
                "name": "私立禾欣美語短期補習班",
                "county": "桃園市",
                "class": "外語類,",
                "students": "國小"
            },
            "geometry": {
                "type": "Point",
                "coordinates": [
                    121.160242,
                    24.912787
                ]
            }
        },
        {
            "type": "Feature",
            "properties": {
                "code": "33200210070006",
                "name": "私立名研烹飪調酒短期補習班",
                "county": "桃園市",
                "class": "家政、插花、烹飪類,",
                "students": "成人(18歲以上)"
            },
            "geometry": {
                "type": "Point",
                "coordinates": [
                    121.206772,
                    24.960701
                ]
            }
        },
        {
            "type": "Feature",
            "properties": {
                "code": "33200210070012",
                "name": "私立悅讀童年語文短期補習班",
                "county": "桃園市",
                "class": "外語類,",
                "students": "國中"
            },
            "geometry": {
                "type": "Point",
                "coordinates": [
                    121.203109,
                    24.951986
                ]
            }
        },
        {
            "type": "Feature",
            "properties": {
                "code": "33200210080001",
                "name": "私立坮大文理短期補習班慈文分班",
                "county": "桃園市",
                "class": "文理類,",
                "students": "國中"
            },
            "geometry": {
                "type": "Point",
                "coordinates": [
                    121.301469,
                    25.01263
                ]
            }
        },
        {
            "type": "Feature",
            "properties": {
                "code": "33200210160001",
                "name": "私立普利斯堡英語會話短期補習班",
                "county": "桃園市",
                "class": "外語類,",
                "students": "國小"
            },
            "geometry": {
                "type": "Point",
                "coordinates": [
                    121.206834,
                    24.945129
                ]
            }
        },
        {
            "type": "Feature",
            "properties": {
                "code": "33200211130003",
                "name": "私立傑西魔法美語文理短期補習班",
                "county": "桃園市",
                "class": "外語類,",
                "students": "國小,國中"
            },
            "geometry": {
                "type": "Point",
                "coordinates": [
                    121.144791,
                    24.911301
                ]
            }
        },
        {
            "type": "Feature",
            "properties": {
                "code": "33200211130017",
                "name": "私立林美志舞蹈短期補習班",
                "county": "桃園市",
                "class": "音樂、舞蹈類,",
                "students": "國小"
            },
            "geometry": {
                "type": "Point",
                "coordinates": [
                    121.320592,
                    25.008205
                ]
            }
        },
        {
            "type": "Feature",
            "properties": {
                "code": "33200211190002",
                "name": "私立三之三珠心算短期補習班",
                "county": "桃園市",
                "class": "商類：珠算、心算、會計,",
                "students": "國小"
            },
            "geometry": {
                "type": "Point",
                "coordinates": [
                    121.24977,
                    24.925129
                ]
            }
        },
        {
            "type": "Feature",
            "properties": {
                "code": "33200211190007",
                "name": "私立千千美語短期補習班",
                "county": "桃園市",
                "class": "外語類,",
                "students": "國小"
            },
            "geometry": {
                "type": "Point",
                "coordinates": [
                    121.223265,
                    24.949853
                ]
            }
        },
        {
            "type": "Feature",
            "properties": {
                "code": "33200211190009",
                "name": "私立喬文文理短期補習班",
                "county": "桃園市",
                "class": "文理類,",
                "students": "國中"
            },
            "geometry": {
                "type": "Point",
                "coordinates": [
                    121.220501,
                    24.947066
                ]
            }
        },
        {
            "type": "Feature",
            "properties": {
                "code": "33200211190014",
                "name": "私立傑克森美語短期補習班",
                "county": "桃園市",
                "class": "外語類,",
                "students": "國小"
            },
            "geometry": {
                "type": "Point",
                "coordinates": [
                    121.284987,
                    24.929279
                ]
            }
        },
        {
            "type": "Feature",
            "properties": {
                "code": "33200211190017",
                "name": "私立安心珠心算文理短期補習班",
                "county": "桃園市",
                "class": "文理類,商類：珠算、心算、會計,",
                "students": "國小,國中"
            },
            "geometry": {
                "type": "Point",
                "coordinates": [
                    121.298303,
                    24.93559
                ]
            }
        },
        {
            "type": "Feature",
            "properties": {
                "code": "33200211190024",
                "name": "私立東區美語珠心算短期補習班",
                "county": "桃園市",
                "class": "外語類,商類：珠算、心算、會計,",
                "students": "國小"
            },
            "geometry": {
                "type": "Point",
                "coordinates": [
                    121.316584,
                    24.995215
                ]
            }
        },
        {
            "type": "Feature",
            "properties": {
                "code": "33200212020001",
                "name": "私立建成文理語文短期補習班",
                "county": "桃園市",
                "class": "文理類,外語類,",
                "students": "國中,國小"
            },
            "geometry": {
                "type": "Point",
                "coordinates": [
                    121.204558,
                    24.912123
                ]
            }
        },
        {
            "type": "Feature",
            "properties": {
                "code": "33200212020002",
                "name": "私立新吉的堡美語珠算短期補習班",
                "county": "桃園市",
                "class": "外語類,商類：珠算、心算、會計,",
                "students": "國小"
            },
            "geometry": {
                "type": "Point",
                "coordinates": [
                    121.21599,
                    24.94976
                ]
            }
        },
        {
            "type": "Feature",
            "properties": {
                "code": "33200212110001",
                "name": "私立翰樺美語珠算短期補習班",
                "county": "桃園市",
                "class": "外語類,商類：珠算、心算、會計,",
                "students": "國小"
            },
            "geometry": {
                "type": "Point",
                "coordinates": [
                    121.30492,
                    24.989234
                ]
            }
        },
        {
            "type": "Feature",
            "properties": {
                "code": "33200212300002",
                "name": "私立經綸文理短期補習班",
                "county": "桃園市",
                "class": "文理類,",
                "students": "國中"
            },
            "geometry": {
                "type": "Point",
                "coordinates": [
                    121.101848,
                    24.970998
                ]
            }
        },
        {
            "type": "Feature",
            "properties": {
                "code": "33200212300003",
                "name": "私立蘇荷美術短期補習班中原分班",
                "county": "桃園市",
                "class": "美術、書法、攝影、美工設計、圍棋類,",
                "students": "國小至成人"
            },
            "geometry": {
                "type": "Point",
                "coordinates": [
                    121.23428,
                    24.949957
                ]
            }
        },
        {
            "type": "Feature",
            "properties": {
                "code": "33200301020004",
                "name": "私立諾亞美語文理短期補習班",
                "county": "桃園市",
                "class": "外語類,",
                "students": "國中,國小"
            },
            "geometry": {
                "type": "Point",
                "coordinates": [
                    121.153076,
                    24.910554
                ]
            }
        },
        {
            "type": "Feature",
            "properties": {
                "code": "33200301160001",
                "name": "真善美文化藝術有限公司附設私立地球村語文短期補習班",
                "county": "桃園市",
                "class": "外語類,",
                "students": "成人(18歲以上)"
            },
            "geometry": {
                "type": "Point",
                "coordinates": [
                    121.223575,
                    24.954734
                ]
            }
        },
        {
            "type": "Feature",
            "properties": {
                "code": "33200301220002",
                "name": "私立比利美語短期補習班",
                "county": "桃園市",
                "class": "外語類,",
                "students": "國小"
            },
            "geometry": {
                "type": "Point",
                "coordinates": [
                    121.316851,
                    24.999925
                ]
            }
        },
        {
            "type": "Feature",
            "properties": {
                "code": "33200301220005",
                "name": "私立佳貝佳舞蹈短期補習班",
                "county": "桃園市",
                "class": "音樂、舞蹈類,",
                "students": "國小"
            },
            "geometry": {
                "type": "Point",
                "coordinates": [
                    121.296879,
                    25.05
                ]
            }
        },
        {
            "type": "Feature",
            "properties": {
                "code": "33200301220007",
                "name": "私立春華英語會話短期補習班",
                "county": "桃園市",
                "class": "外語類,",
                "students": "國小至成人"
            },
            "geometry": {
                "type": "Point",
                "coordinates": [
                    121.205381,
                    24.955266
                ]
            }
        },
        {
            "type": "Feature",
            "properties": {
                "code": "33200302100001",
                "name": "私立方華文理短期補習班雙龍分班",
                "county": "桃園市",
                "class": "文理類,外語類,",
                "students": "國小,國中"
            },
            "geometry": {
                "type": "Point",
                "coordinates": [
                    121.214273,
                    24.858516
                ]
            }
        },
        {
            "type": "Feature",
            "properties": {
                "code": "33200302100002",
                "name": "私立九歌美語作文珠心算短期補習班",
                "county": "桃園市",
                "class": "外語類,商類：珠算、心算、會計,",
                "students": "國小"
            },
            "geometry": {
                "type": "Point",
                "coordinates": [
                    121.315056,
                    24.983733
                ]
            }
        },
        {
            "type": "Feature",
            "properties": {
                "code": "33200302100003",
                "name": "私立得勝語文文理短期補習班",
                "county": "桃園市",
                "class": "文理類,外語類,",
                "students": "國小,國中"
            },
            "geometry": {
                "type": "Point",
                "coordinates": [
                    121.258887,
                    25.023743
                ]
            }
        },
        {
            "type": "Feature",
            "properties": {
                "code": "33200302100008",
                "name": "私立芸瀚英語短期補習班",
                "county": "桃園市",
                "class": "外語類,",
                "students": "國小"
            },
            "geometry": {
                "type": "Point",
                "coordinates": [
                    121.314498,
                    24.983269
                ]
            }
        },
        {
            "type": "Feature",
            "properties": {
                "code": "33200302250001",
                "name": "私立最好的文理短期補習班",
                "county": "桃園市",
                "class": "文理類,",
                "students": "國中"
            },
            "geometry": {
                "type": "Point",
                "coordinates": [
                    121.16637,
                    24.957827
                ]
            }
        },
        {
            "type": "Feature",
            "properties": {
                "code": "33200303100001",
                "name": "私立大英美語文理短期補習班",
                "county": "桃園市",
                "class": "文理類,外語類,",
                "students": "國小,國中"
            },
            "geometry": {
                "type": "Point",
                "coordinates": [
                    121.134535,
                    25.015571
                ]
            }
        },
        {
            "type": "Feature",
            "properties": {
                "code": "33200303200001",
                "name": "私立健鷹文理短期補習班",
                "county": "桃園市",
                "class": "文理類,",
                "students": "國中"
            },
            "geometry": {
                "type": "Point",
                "coordinates": [
                    121.210671,
                    24.957519
                ]
            }
        },
        {
            "type": "Feature",
            "properties": {
                "code": "33200303270001",
                "name": "私立慧揚文理短期補習班",
                "county": "桃園市",
                "class": "文理類,",
                "students": "國中"
            },
            "geometry": {
                "type": "Point",
                "coordinates": [
                    121.311916,
                    24.989878
                ]
            }
        },
        {
            "type": "Feature",
            "properties": {
                "code": "33200303270003",
                "name": "私立振揚美語珠心算短期補習班",
                "county": "桃園市",
                "class": "商類：珠算、心算、會計,",
                "students": "國小"
            },
            "geometry": {
                "type": "Point",
                "coordinates": [
                    121.271261,
                    24.98184
                ]
            }
        },
        {
            "type": "Feature",
            "properties": {
                "code": "33200304290002",
                "name": "私立貝貝鹿美語短期補習班",
                "county": "桃園市",
                "class": "外語類,",
                "students": "國小"
            },
            "geometry": {
                "type": "Point",
                "coordinates": [
                    121.297873,
                    24.935435
                ]
            }
        },
        {
            "type": "Feature",
            "properties": {
                "code": "33200304290005",
                "name": "私立立進電腦美語文理短期補習班",
                "county": "桃園市",
                "class": "文理類,外語類,資訊類,",
                "students": "小一至成人,國中"
            },
            "geometry": {
                "type": "Point",
                "coordinates": [
                    121.299408,
                    25.021913
                ]
            }
        },
        {
            "type": "Feature",
            "properties": {
                "code": "33200304290006",
                "name": "私立致勝文理美語短期補習班",
                "county": "桃園市",
                "class": "文理類,外語類,",
                "students": "國小,國中"
            },
            "geometry": {
                "type": "Point",
                "coordinates": [
                    121.286094,
                    24.929718
                ]
            }
        },
        {
            "type": "Feature",
            "properties": {
                "code": "33200305290003",
                "name": "私立夏福爾美語短期補習班",
                "county": "桃園市",
                "class": "外語類,",
                "students": "國小"
            },
            "geometry": {
                "type": "Point",
                "coordinates": [
                    121.289897,
                    25.046323
                ]
            }
        },
        {
            "type": "Feature",
            "properties": {
                "code": "33200305290004",
                "name": "私立大瑀文理短期補習班",
                "county": "桃園市",
                "class": "文理類,",
                "students": "國中"
            },
            "geometry": {
                "type": "Point",
                "coordinates": [
                    121.29983,
                    24.99597
                ]
            }
        },
        {
            "type": "Feature",
            "properties": {
                "code": "33200306020001",
                "name": "朝陽富元教育股份有限公司附設私立朝揚文理語文短期補習班同安分班",
                "county": "桃園市",
                "class": "文理類,外語類,",
                "students": "國小,國中"
            },
            "geometry": {
                "type": "Point",
                "coordinates": [
                    121.297199,
                    25.021187
                ]
            }
        },
        {
            "type": "Feature",
            "properties": {
                "code": "33200306020002",
                "name": "優質坮大教育股份有限公司附設私立優質坮大文理短期補習班市府分班",
                "county": "桃園市",
                "class": "文理類,",
                "students": "國中,國小"
            },
            "geometry": {
                "type": "Point",
                "coordinates": [
                    121.30278,
                    24.993568
                ]
            }
        },
        {
            "type": "Feature",
            "properties": {
                "code": "33200306020003",
                "name": "朝陽富元教育股份有限公司附設私立朝揚文理語文短期補習班大竹分班",
                "county": "桃園市",
                "class": "文理類,外語類,",
                "students": "國小,國中"
            },
            "geometry": {
                "type": "Point",
                "coordinates": [
                    121.259701,
                    25.024704
                ]
            }
        },
        {
            "type": "Feature",
            "properties": {
                "code": "33200306100002",
                "name": "私立九華建築短期補習班",
                "county": "桃園市",
                "class": "電機、汽車修護、建築、工藝、製圖類,",
                "students": "成人(18歲以上)"
            },
            "geometry": {
                "type": "Point",
                "coordinates": [
                    121.226466,
                    24.965468
                ]
            }
        },
        {
            "type": "Feature",
            "properties": {
                "code": "33200306100004",
                "name": "私立宏大美語數學文理短期補習班",
                "county": "桃園市",
                "class": "文理類,外語類,",
                "students": "國中,國小"
            },
            "geometry": {
                "type": "Point",
                "coordinates": [
                    121.297216,
                    25.0558
                ]
            }
        },
        {
            "type": "Feature",
            "properties": {
                "code": "33200306230001",
                "name": "私立維瑞英語會話短期補習班",
                "county": "桃園市",
                "class": "外語類,",
                "students": "國小至成人"
            },
            "geometry": {
                "type": "Point",
                "coordinates": [
                    121.180925,
                    24.908937
                ]
            }
        },
        {
            "type": "Feature",
            "properties": {
                "code": "33200306230002",
                "name": "私立勵成文理短期補習班東興分班",
                "county": "桃園市",
                "class": "文理類,外語類,",
                "students": "國小,國中"
            },
            "geometry": {
                "type": "Point",
                "coordinates": [
                    121.230046,
                    24.951288
                ]
            }
        },
        {
            "type": "Feature",
            "properties": {
                "code": "33200308260001",
                "name": "私立漢峰語文文理短期補習班",
                "county": "桃園市",
                "class": "文理類,外語類,",
                "students": "國中,國小"
            },
            "geometry": {
                "type": "Point",
                "coordinates": [
                    121.146287,
                    24.910906
                ]
            }
        },
        {
            "type": "Feature",
            "properties": {
                "code": "33200310010004",
                "name": "巨匠電腦股份有限公司附設私立巨強電腦短期補習班",
                "county": "桃園市",
                "class": "外語類,",
                "students": "成人(18歲以上)"
            },
            "geometry": {
                "type": "Point",
                "coordinates": [
                    121.292894,
                    25.046371
                ]
            }
        },
        {
            "type": "Feature",
            "properties": {
                "code": "33200310010006",
                "name": "私立奧詩卡珠心算美語短期補習班",
                "county": "桃園市",
                "class": "外語類,商類：珠算、心算、會計,",
                "students": "國小"
            },
            "geometry": {
                "type": "Point",
                "coordinates": [
                    121.257102,
                    25.077082
                ]
            }
        },
        {
            "type": "Feature",
            "properties": {
                "code": "33200310010007",
                "name": "雲門國際事業股份有限公司附設私立雲門舞集藝文舞蹈短期補習班",
                "county": "桃園市",
                "class": "音樂、舞蹈類,",
                "students": "國小"
            },
            "geometry": {
                "type": "Point",
                "coordinates": [
                    121.29754,
                    25.017595
                ]
            }
        },
        {
            "type": "Feature",
            "properties": {
                "code": "33200310010008",
                "name": "私立蜻蜓美語短期補習班",
                "county": "桃園市",
                "class": "外語類,",
                "students": "國小"
            },