{
    "type": "FeatureCollection",
    "features": [
        {
            "type": "Feature",
            "properties": {
                "code": "33201901100001",
                "name": "明光文化有限公司附設私立明光語文文理短期補習班",
                "county": "桃園市",
                "class": "文理類,外語類,",
                "students": "國小,國中"
            },
            "geometry": {
                "type": "Point",
                "coordinates": [
                    121.301377,
                    25.012605
                ]
            }
        },
        {
            "type": "Feature",
            "properties": {
                "code": "33201902110001",
                "name": "私立華蓮語文數學技藝文理短期補習班",
                "county": "桃園市",
                "class": "文理類,商類：珠算、心算、會計,其他類,",
                "students": "國小,國中"
            },
            "geometry": {
                "type": "Point",
                "coordinates": [
                    121.22648,
                    24.946278
                ]
            }
        },
        {
            "type": "Feature",
            "properties": {
                "code": "33201902220001",
                "name": "私立哲宥文理短期補習班龍岡分班",
                "county": "桃園市",
                "class": "文理類,",
                "students": "國中"
            },
            "geometry": {
                "type": "Point",
                "coordinates": [
                    121.251637,
                    24.926369
                ]
            }
        },
        {
            "type": "Feature",
            "properties": {
                "code": "33201902250001",
                "name": "私立傑生語文數學文理短期補習班",
                "county": "桃園市",
                "class": "文理類,外語類,",
                "students": "國小,國中"
            },
            "geometry": {
                "type": "Point",
                "coordinates": [
                    121.306119,
                    24.999808
                ]
            }
        },
        {
            "type": "Feature",
            "properties": {
                "code": "33201902260001",
                "name": "私立宏利數學文理語文短期補習班",
                "county": "桃園市",
                "class": "文理類,外語類,",
                "students": "國小、國中、高中,國中、高中,國小"
            },
            "geometry": {
                "type": "Point",
                "coordinates": [
                    121.290495,
                    24.984559
                ]
            }
        },
        {
            "type": "Feature",
            "properties": {
                "code": "33201903070001",
                "name": "私立信義數學文理語文短期補習班",
                "county": "桃園市",
                "class": "文理類,外語類,",
                "students": "國小,國中、高中,國小、國中、高中"
            },
            "geometry": {
                "type": "Point",
                "coordinates": [
                    121.318346,
                    25.006836
                ]
            }
        },
        {
            "type": "Feature",
            "properties": {
                "code": "33201903080001",
                "name": "學城文教事業有限公司附設私立學城文理短期補習班",
                "county": "桃園市",
                "class": "文理類,",
                "students": "國中、高中"
            },
            "geometry": {
                "type": "Point",
                "coordinates": [
                    121.293145,
                    25.016124
                ]
            }
        },
        {
            "type": "Feature",
            "properties": {
                "code": "33201903080002",
                "name": "私立立達文理數學短期補習班",
                "county": "桃園市",
                "class": "文理類,",
                "students": "國中,國小"
            },
            "geometry": {
                "type": "Point",
                "coordinates": [
                    121.311845,
                    25.014921
                ]
            }
        },
        {
            "type": "Feature",
            "properties": {
                "code": "33201903120001",
                "name": "私立助亦語文短期補習班",
                "county": "桃園市",
                "class": "外語類,",
                "students": "國小"
            },
            "geometry": {
                "type": "Point",
                "coordinates": [
                    121.339023,
                    24.993172
                ]
            }
        },
        {
            "type": "Feature",
            "properties": {
                "code": "33201903130001",
                "name": "社團法人中國青年救國團附設私立景福技藝短期補習班",
                "county": "桃園市",
                "class": "家政、插花、烹飪類,音樂、舞蹈類,",
                "students": "國中以上"
            },
            "geometry": {
                "type": "Point",
                "coordinates": [
                    121.314256,
                    24.993513
                ]
            }
        },
        {
            "type": "Feature",
            "properties": {
                "code": "33201903290001",
                "name": "私立樂讀英語會話短期補習班",
                "county": "桃園市",
                "class": "外語類,",
                "students": "成人(18歲以上),高中,國中,國小"
            },
            "geometry": {
                "type": "Point",
                "coordinates": [
                    121.217896,
                    24.865271
                ]
            }
        },
        {
            "type": "Feature",
            "properties": {
                "code": "33201903290002",
                "name": "私立復旦智城文理數學語文短期補習班",
                "county": "桃園市",
                "class": "文理類,外語類,其他類,",
                "students": "國中,國小"
            },
            "geometry": {
                "type": "Point",
                "coordinates": [
                    121.202793,
                    24.945671
                ]
            }
        },
        {
            "type": "Feature",
            "properties": {
                "code": "33201904010001",
                "name": "私立福僑數學語文短期補習班",
                "county": "桃園市",
                "class": "文理類,外語類,",
                "students": "國小,高中,國中"
            },
            "geometry": {
                "type": "Point",
                "coordinates": [
                    121.295537,
                    24.957401
                ]
            }
        },
        {
            "type": "Feature",
            "properties": {
                "code": "33201904080001",
                "name": "私立紅蘋果美術短期補習班",
                "county": "桃園市",
                "class": "美術、書法、攝影、美工設計、圍棋類,",
                "students": "國小"
            },
            "geometry": {
                "type": "Point",
                "coordinates": [
                    121.257158,
                    25.024647
                ]
            }
        },
        {
            "type": "Feature",
            "properties": {
                "code": "33201904090001",
                "name": "私立凱育音樂舞蹈短期補習班",
                "county": "桃園市",
                "class": "音樂、舞蹈類,",
                "students": "國中"
            },
            "geometry": {
                "type": "Point",
                "coordinates": [
                    121.300087,
                    25.011934
                ]
            }
        },
        {
            "type": "Feature",
            "properties": {
                "code": "33201904110001",
                "name": "私立冠騰文理短期補習班",
                "county": "桃園市",
                "class": "文理類,",
                "students": "國中,高中"
            },
            "geometry": {
                "type": "Point",
                "coordinates": [
                    121.180082,
                    24.988771
                ]
            }
        },
        {
            "type": "Feature",
            "properties": {
                "code": "33201904150001",
                "name": "朝陽富元教育股份有限公司附設私立朝揚文理語文短期補習班建國分班",
                "county": "桃園市",
                "class": "文理類,外語類,",
                "students": "國中,國小"
            },
            "geometry": {
                "type": "Point",
                "coordinates": [
                    121.307874,
                    24.977249
                ]
            }
        },
        {
            "type": "Feature",
            "properties": {
                "code": "33201904160001",
                "name": "私立北一文理美語短期補習班",
                "county": "桃園市",
                "class": "文理類,外語類,",
                "students": "國小,國中"
            },
            "geometry": {
                "type": "Point",
                "coordinates": [
                    121.205107,
                    25.01051
                ]
            }
        },
        {
            "type": "Feature",
            "properties": {
                "code": "33201904170001",
                "name": "私立興儒文理短期補習班中壢分班",
                "county": "桃園市",
                "class": "文理類,",
                "students": "國中"
            },
            "geometry": {
                "type": "Point",
                "coordinates": [
                    121.21972,
                    24.950051
                ]
            }
        },
        {
            "type": "Feature",
            "properties": {
                "code": "33201904180001",
                "name": "社團法人中國青年救國團附設私立世貿語文技藝短期補習班",
                "county": "桃園市",
                "class": "外語類,美術、書法、攝影、美工設計、圍棋類,",
                "students": "成人(18歲以上)"
            },
            "geometry": {
                "type": "Point",
                "coordinates": [
                    121.297852,
                    25.016318
                ]
            }
        },
        {
            "type": "Feature",
            "properties": {
                "code": "33201906050001",
                "name": "弋果文化事業股份有限公司附設私立譯果語文文理數學短期補習班",
                "county": "桃園市",
                "class": "文理類,外語類,",
                "students": "國小,國中"
            },
            "geometry": {
                "type": "Point",
                "coordinates": [
                    121.294999,
                    25.023195
                ]
            }
        },
        {
            "type": "Feature",
            "properties": {
                "code": "33201906100001",
                "name": "私立學育文理短期補習班高中分班",
                "county": "桃園市",
                "class": "文理類,",
                "students": "高中"
            },
            "geometry": {
                "type": "Point",
                "coordinates": [
                    121.257371,
                    24.973468
                ]
            }
        },
        {
            "type": "Feature",
            "properties": {
                "code": "33201906190001",
                "name": "私立常春藤美語數學文理短期補習班",
                "county": "桃園市",
                "class": "文理類,外語類,其他類,",
                "students": "國小,國中"
            },
            "geometry": {
                "type": "Point",
                "coordinates": [
                    121.211966,
                    24.907489
                ]
            }
        },
        {
            "type": "Feature",
            "properties": {
                "code": "33201906190002",
                "name": "私立彩曦文理語文短期補習班",
                "county": "桃園市",
                "class": "文理類,外語類,",
                "students": "國中,國小"
            },
            "geometry": {
                "type": "Point",
                "coordinates": [
                    121.214513,
                    25.005288
                ]
            }
        },
        {
            "type": "Feature",
            "properties": {
                "code": "33201906250001",
                "name": "私立豆子音樂短期補習班",
                "county": "桃園市",
                "class": "音樂、舞蹈類,",
                "students": "其他"
            },
            "geometry": {
                "type": "Point",
                "coordinates": [
                    121.341802,
                    25.003208
                ]
            }
        },
        {
            "type": "Feature",
            "properties": {
                "code": "33201906250002",
                "name": "私立東野學堂文理語文數學短期補習班",
                "county": "桃園市",
                "class": "文理類,外語類,",
                "students": "國小,高中,國中"
            },
            "geometry": {
                "type": "Point",
                "coordinates": [
                    121.300133,
                    25.051639
                ]
            }
        },
        {
            "type": "Feature",
            "properties": {
                "code": "33201906280001",
                "name": "私立茁躍語文短期補習班",
                "county": "桃園市",
                "class": "外語類,",
                "students": "國小"
            },
            "geometry": {
                "type": "Point",
                "coordinates": [
                    121.342856,
                    25.006413
                ]
            }
        },
        {
            "type": "Feature",
            "properties": {
                "code": "33201907040001",
                "name": "私立碩成文理語文數學美術短期補習班",
                "county": "桃園市",
                "class": "文理類,外語類,美術、書法、攝影、美工設計、圍棋類,",
                "students": "國小,國中"
            },
            "geometry": {
                "type": "Point",
                "coordinates": [
                    121.18093,
                    24.988992
                ]
            }
        },
        {
            "type": "Feature",
            "properties": {
                "code": "33201907090001",
                "name": "私立捷妮思語文文理短期補習班",
                "county": "桃園市",
                "class": "文理類,外語類,",
                "students": "國小,成人(18歲以上),國中"
            },
            "geometry": {
                "type": "Point",
                "coordinates": [
                    121.169991,
                    24.907879
                ]
            }
        },
        {
            "type": "Feature",
            "properties": {
                "code": "33201907230001",
                "name": "私立林錦文理英語數學短期補習班",
                "county": "桃園市",
                "class": "文理類,外語類,",
                "students": "國中,國小"
            },
            "geometry": {
                "type": "Point",
                "coordinates": [
                    121.203306,
                    24.952535
                ]
            }
        },
        {
            "type": "Feature",
            "properties": {
                "code": "33201907230002",
                "name": "私立企鵝家族語文數學科學短期補習班",
                "county": "桃園市",
                "class": "外語類,其他類,",
                "students": "國小"
            },
            "geometry": {
                "type": "Point",
                "coordinates": [
                    121.256727,
                    24.966149
                ]
            }
        },
        {
            "type": "Feature",
            "properties": {
                "code": "33201907250001",
                "name": "劉氏教育事業股份有限公司附設私立劉氏延平作文文理短期補習班",
                "county": "桃園市",
                "class": "文理類,其他類,",
                "students": "國中,國小"
            },
            "geometry": {
                "type": "Point",
                "coordinates": [
                    121.230566,
                    24.963605
                ]
            }
        },
        {
            "type": "Feature",
            "properties": {
                "code": "33201907290001",
                "name": "私立中山語文短期補習班",
                "county": "桃園市",
                "class": "外語類,",
                "students": "國小,成人(18歲以上),國小至高中"
            },
            "geometry": {
                "type": "Point",
                "coordinates": [
                    121.288526,
                    24.98917
                ]
            }
        },
        {
            "type": "Feature",
            "properties": {
                "code": "33201908020001",
                "name": "私立長青博儒文理美語短期補習班",
                "county": "桃園市",
                "class": "文理類,外語類,",
                "students": "國中,國小"
            },
            "geometry": {
                "type": "Point",
                "coordinates": [
                    121.209718,
                    24.898313
                ]
            }
        },
        {
            "type": "Feature",
            "properties": {
                "code": "33201908210001",
                "name": "劉氏文教事業股份有限公司附設私立劉氏慈文作文文理短期補習班",
                "county": "桃園市",
                "class": "文理類,",
                "students": "國中,國小"
            },
            "geometry": {
                "type": "Point",
                "coordinates": [
                    121.306174,
                    25.010743
                ]
            }
        },
        {
            "type": "Feature",
            "properties": {
                "code": "33201908230001",
                "name": "萌客股份有限公司附設私立萌客外語短期補習班",
                "county": "桃園市",
                "class": "外語類,",
                "students": "成人(18歲以上)"
            },
            "geometry": {
                "type": "Point",
                "coordinates": [
                    121.223403,
                    24.956213
                ]
            }
        },
        {
            "type": "Feature",
            "properties": {
                "code": "33201910150001",
                "name": "私立佳安語文文理數學短期補習班",
                "county": "桃園市",
                "class": "文理類,外語類,其他類,",
                "students": "國小,國中"
            },
            "geometry": {
                "type": "Point",
                "coordinates": [
                    121.215339,
                    24.958611
                ]
            }
        },
        {
            "type": "Feature",
            "properties": {
                "code": "33201910160001",
                "name": "私立先勝文理短期補習班",
                "county": "桃園市",
                "class": "文理類,",
                "students": "高中"
            },
            "geometry": {
                "type": "Point",
                "coordinates": [
                    121.299201,
                    25.054774
                ]
            }
        },
        {
            "type": "Feature",
            "properties": {
                "code": "33201910160002",
                "name": "私立理捷英文短期補習班",
                "county": "桃園市",
                "class": "外語類,",
                "students": "國中、高中"
            },
            "geometry": {
                "type": "Point",
                "coordinates": [
                    121.304663,
                    24.980236
                ]
            }
        },
        {
            "type": "Feature",
            "properties": {
                "code": "33201910180001",
                "name": "私立角田日語短期補習班",
                "county": "桃園市",
                "class": "外語類,",
                "students": "成人(18歲以上)"
            },
            "geometry": {
                "type": "Point",
                "coordinates": [
                    121.311777,
                    24.99132
                ]
            }
        },
        {
            "type": "Feature",
            "properties": {
                "code": "33201910230001",
                "name": "私立志意美術短期補習班",
                "county": "桃園市",
                "class": "美術、書法、攝影、美工設計、圍棋類,",
                "students": "國中"
            },
            "geometry": {
                "type": "Point",
                "coordinates": [
                    121.230217,
                    24.95229
                ]
            }
        },
        {
            "type": "Feature",
            "properties": {
                "code": "33201910230002",
                "name": "私立房角石文理語文數學短期補習班",
                "county": "桃園市",
                "class": "文理類,外語類,其他類,",
                "students": "國中,國小"
            },
            "geometry": {
                "type": "Point",
                "coordinates": [
                    121.200838,
                    24.944403
                ]
            }
        },
        {
            "type": "Feature",
            "properties": {
                "code": "33201911050001",
                "name": "碩騏文教事業有限公司附設私立碩騏文理短期補習班",
                "county": "桃園市",
                "class": "文理類,",
                "students": "國中、高中"
            },
            "geometry": {
                "type": "Point",
                "coordinates": [
                    121.230104,
                    24.950868
                ]
            }
        },
        {
            "type": "Feature",
            "properties": {
                "code": "33201911180001",
                "name": "私立立維文理語文短期補習班",
                "county": "桃園市",
                "class": "文理類,外語類,",
                "students": "國中,國小"
            },
            "geometry": {
                "type": "Point",
                "coordinates": [
                    121.316036,
                    24.980228
                ]
            }
        },
        {
            "type": "Feature",
            "properties": {
                "code": "33201911250001",
                "name": "私立內立文城文理短期補習班",
                "county": "桃園市",
                "class": "文理類,",
                "students": "高中"
            },
            "geometry": {
                "type": "Point",
                "coordinates": [
                    121.255973,
                    24.973754
                ]
            }
        },
        {
            "type": "Feature",
            "properties": {
                "code": "33201911270001",
                "name": "私立瑞溪英語短期補習班",
                "county": "桃園市",
                "class": "外語類,",
                "students": "國中,成人(18歲以上),國小"
            },
            "geometry": {
                "type": "Point",
                "coordinates": [
                    121.175535,
                    24.907433
                ]
            }
        },
        {
            "type": "Feature",
            "properties": {
                "code": "33201912040001",
                "name": "私立方華文理技藝短期補習班青埔旗艦分班",
                "county": "桃園市",
                "class": "文理類,外語類,音樂、舞蹈類,其他類,",
                "students": "國中,國小"
            },
            "geometry": {
                "type": "Point",
                "coordinates": [
                    121.215097,
                    25.006634
                ]
            }
        },
        {
            "type": "Feature",
            "properties": {
                "code": "33201912050001",
                "name": "私立悠學文理技藝短期補習班",
                "county": "桃園市",
                "class": "文理類,美術、書法、攝影、美工設計、圍棋類,",
                "students": "高中職以上"
            },
            "geometry": {
                "type": "Point",
                "coordinates": [
                    121.311916,
                    24.989878
                ]
            }
        },
        {
            "type": "Feature",
            "properties": {
                "code": "33201912090001",
                "name": "私立藍獅數學自然文理短期補習班",
                "county": "桃園市",
                "class": "文理類,外語類,",
                "students": "國小,國中"
            },
            "geometry": {
                "type": "Point",
                "coordinates": [
                    121.212739,
                    25.006519
                ]
            }
        },
        {
            "type": "Feature",
            "properties": {
                "code": "33201912090002",
                "name": "私立文心數學語文短期補習班",
                "county": "桃園市",
                "class": "文理類,外語類,",
                "students": "國小,國小國中高中"
            },
            "geometry": {
                "type": "Point",
                "coordinates": [
                    121.300141,
                    24.959173
                ]
            }
        },
        {
            "type": "Feature",
            "properties": {
                "code": "33201912180001",
                "name": "環愛國際教育管理顧問股份有限公司附設私立大方美語數學短期補習班",
                "county": "桃園市",
                "class": "外語類,其他類,",
                "students": "國小"
            },
            "geometry": {
                "type": "Point",
                "coordinates": [
                    121.250502,
                    24.91878
                ]
            }
        },
        {
            "type": "Feature",
            "properties": {
                "code": "33201912230001",
                "name": "私立黃杰語文文理短期補習班",
                "county": "桃園市",
                "class": "文理類,外語類,",
                "students": "國小,國中,高中"
            },
            "geometry": {
                "type": "Point",
                "coordinates": [
                    121.296995,
                    25.0505
                ]
            }
        },
        {
            "type": "Feature",
            "properties": {
                "code": "33202001020001",
                "name": "私立艾貝思美語文理短期補習班",
                "county": "桃園市",
                "class": "文理類,外語類,",
                "students": "國中"
            },
            "geometry": {
                "type": "Point",
                "coordinates": [
                    121.230545,
                    24.941963
                ]
            }
        },
        {
            "type": "Feature",
            "properties": {
                "code": "33202001140001",
                "name": "私立思塾數學語文文理短期補習班",
                "county": "桃園市",
                "class": "文理類,外語類,其他類,",
                "students": "國小,國中"
            },
            "geometry": {
                "type": "Point",
                "coordinates": [
                    121.221107,
                    24.962738
                ]
            }
        },
        {
            "type": "Feature",
            "properties": {
                "code": "33202001300002",
                "name": "私立愛利克絲語文短期補習班",
                "county": "桃園市",
                "class": "外語類,",
                "students": "國小,國中,高中,成人(18歲以上)"
            },
            "geometry": {
                "type": "Point",
                "coordinates": [
                    121.157191,
                    24.911797
                ]
            }
        },
        {
            "type": "Feature",
            "properties": {
                "code": "33202001300003",
                "name": "私立杜佳倫舞蹈短期補習班",
                "county": "桃園市",
                "class": "音樂、舞蹈類,",
                "students": "國小以上國中以下,成人(18歲以上)"
            },
            "geometry": {
                "type": "Point",
                "coordinates": [
                    121.287588,
                    24.985659
                ]
            }
        },
        {
            "type": "Feature",
            "properties": {
                "code": "33202002060001",
                "name": "私立斯恩數學語文短期補習班",
                "county": "桃園市",
                "class": "外語類,",
                "students": "國小"
            },
            "geometry": {
                "type": "Point",
                "coordinates": [
                    121.299118,
                    25.049123
                ]
            }
        },
        {
            "type": "Feature",
            "properties": {
                "code": "33202002110001",
                "name": "私立大興數學語文短期補習班",
                "county": "桃園市",
                "class": "外語類,",
                "students": "國小,國小國中高中"
            },
            "geometry": {
                "type": "Point",
                "coordinates": [
                    121.255478,
                    25.023913
                ]
            }
        },
        {
            "type": "Feature",
            "properties": {
                "code": "33202002130001",
                "name": "私立皇家國豐語文數學短期補習班",
                "county": "桃園市",
                "class": "外語類,其他類,",
                "students": "國小"
            },
            "geometry": {
                "type": "Point",
                "coordinates": [
                    121.29134,
                    24.961085
                ]
            }
        },
        {
            "type": "Feature",
            "properties": {
                "code": "33202002260001",
                "name": "私立新世紀語文短期補習班",
                "county": "桃園市",
                "class": "外語類,",
                "students": "國小"
            },
            "geometry": {
                "type": "Point",
                "coordinates": [
                    121.359801,
                    25.052205
                ]
            }
        },
        {
            "type": "Feature",
            "properties": {
                "code": "33202003190001",
                "name": "私立凱濼美語文理短期補習班",
                "county": "桃園市",
                "class": "文理類,外語類,",
                "students": "國小,國中"
            },
            "geometry": {
                "type": "Point",
                "coordinates": [
                    121.291996,
                    24.921885
                ]
            }
        },
        {
            "type": "Feature",
            "properties": {
                "code": "33202003240001",
                "name": "私立葛萊文理美語短期補習班",
                "county": "桃園市",
                "class": "文理類,外語類,",
                "students": "國中,國小"
            },
            "geometry": {
                "type": "Point",
                "coordinates": [
                    121.300219,
                    24.959828
                ]
            }
        },
        {
            "type": "Feature",
            "properties": {
                "code": "33202003300001",
                "name": "私立龍祥語文數學自然短期補習班",
                "county": "桃園市",
                "class": "外語類,其他類,",
                "students": "國小,國中"
            },
            "geometry": {
                "type": "Point",
                "coordinates": [
                    121.217201,
                    24.864156
                ]
            }
        },
        {
            "type": "Feature",
            "properties": {
                "code": "33202004140001",
                "name": "私立興儒數學語文文理短期補習班市府分班",
                "county": "桃園市",
                "class": "文理類,外語類,",
                "students": "國小,高中,國中"
            },
            "geometry": {
                "type": "Point",
                "coordinates": [
                    121.301221,
                    24.991472
                ]
            }
        },
        {
            "type": "Feature",
            "properties": {
                "code": "33202004170001",
                "name": "私立研心語文數學短期補習班",
                "county": "桃園市",
                "class": "文理類,外語類,",
                "students": "國小"
            },
            "geometry": {
                "type": "Point",
                "coordinates": [
                    121.364268,
                    25.051179
                ]
            }
        },
        {
            "type": "Feature",
            "properties": {
                "code": "33202004210001",
                "name": "私立拓德數學文理語文短期補習班",
                "county": "桃園市",
                "class": "文理類,外語類,",
                "students": "國小,國中,高中"
            },
            "geometry": {
                "type": "Point",
                "coordinates": [
                    121.223006,
                    24.964255
                ]
            }
        },
        {
            "type": "Feature",
            "properties": {
                "code": "33202004300001",
                "name": "私立威霖數學語文短期補習班",
                "county": "桃園市",
                "class": "外語類,其他類,",
                "students": "國小"
            },
            "geometry": {
                "type": "Point",
                "coordinates": [
                    121.104673,
                    24.975048
                ]
            }
        },
        {
            "type": "Feature",
            "properties": {
                "code": "33202005070001",
                "name": "私立嘉宇語文短期補習班",
                "county": "桃園市",
                "class": "外語類,",
                "students": "國小國中"
            },
            "geometry": {
                "type": "Point",
                "coordinates": [
                    121.296218,
                    25.013548
                ]
            }
        },
        {
            "type": "Feature",
            "properties": {
                "code": "33202005070002",
                "name": "私立建國語文短期補習班",
                "county": "桃園市",
                "class": "外語類,",
                "students": "國小,國小至高中,成人(18歲以上)"
            },
            "geometry": {
                "type": "Point",
                "coordinates": [
                    121.314645,
                    24.979124
                ]
            }
        },
        {
            "type": "Feature",
            "properties": {
                "code": "33202005220001",
                "name": "私立優勢國際美語數學短期補習班",
                "county": "桃園市",
                "class": "外語類,其他類,",
                "students": "國小"
            },
            "geometry": {
                "type": "Point",
                "coordinates": [
                    121.291606,
                    24.984741
                ]
            }
        },
        {
            "type": "Feature",
            "properties": {
                "code": "33202005220002",
                "name": "私立蒙特利英語文理短期補習班",
                "county": "桃園市",
                "class": "文理類,外語類,",
                "students": "國中,國小"
            },
            "geometry": {
                "type": "Point",
                "coordinates": [
                    121.252601,
                    24.972629
                ]
            }
        },
        {
            "type": "Feature",
            "properties": {
                "code": "33202005280001",
                "name": "私立新興數學語文短期補習班",
                "county": "桃園市",
                "class": "外語類,其他類,",
                "students": "國中,國小"
            },
            "geometry": {
                "type": "Point",
                "coordinates": [
                    121.209892,
                    24.95032
                ]
            }
        },
        {
            "type": "Feature",
            "properties": {
                "code": "33202005280002",
                "name": "私立興儒數學語文文理短期補習班內壢分班",
                "county": "桃園市",
                "class": "文理類,外語類,其他類,",
                "students": "國小,國中"
            },
            "geometry": {
                "type": "Point",
                "coordinates": [
                    121.256898,
                    24.974135
                ]
            }
        },
        {
            "type": "Feature",
            "properties": {
                "code": "33202005280003",
                "name": "私立好好學堂文理短期補習班",
                "county": "桃園市",
                "class": "文理類,外語類,其他類,",
                "students": "國小,國中"
            },
            "geometry": {
                "type": "Point",
                "coordinates": [
                    121.297258,
                    25.050598
                ]
            }
        },
        {
            "type": "Feature",
            "properties": {
                "code": "33202006010001",
                "name": "私立新冠智文理語文數學短期補習班",
                "county": "桃園市",
                "class": "文理類,外語類,其他類,",
                "students": "國中,國小"
            },
            "geometry": {
                "type": "Point",
                "coordinates": [
                    121.31471,
                    24.994714
                ]
            }
        },
        {
            "type": "Feature",
            "properties": {
                "code": "33202006020001",
                "name": "私立逸學文理語文數學短期補習班",
                "county": "桃園市",
                "class": "文理類,外語類,其他類,",
                "students": "國中,高中"
            },
            "geometry": {
                "type": "Point",
                "coordinates": [
                    121.289123,
                    25.045
                ]
            }
        },
        {
            "type": "Feature",
            "properties": {
                "code": "33202006290001",
                "name": "私立凱思英語短期補習班新農分班",
                "county": "桃園市",
                "class": "外語類,",
                "students": "國小,國小及國中"
            },
            "geometry": {
                "type": "Point",
                "coordinates": [
                    121.170888,
                    24.912043
                ]
            }
        },
        {
            "type": "Feature",
            "properties": {
                "code": "33202006290002",
                "name": "私立金捷升數學語文文理短期補習班",
                "county": "桃園市",
                "class": "文理類,外語類,其他類,",
                "students": "國小,國中"
            },
            "geometry": {
                "type": "Point",
                "coordinates": [
                    121.147099,
                    24.905692
                ]
            }
        },
        {
            "type": "Feature",
            "properties": {
                "code": "33202007030001",
                "name": "私立呂承瑾音樂短期補習班",
                "county": "桃園市",
                "class": "音樂、舞蹈類,",
                "students": "國小"
            },
            "geometry": {
                "type": "Point",
                "coordinates": [
                    121.319301,
                    25.003551
                ]
            }
        },
        {
            "type": "Feature",
            "properties": {
                "code": "33202007070001",
                "name": "私立優立方語文數學短期補習班",
                "county": "桃園市",
                "class": "外語類,其他類,",
                "students": "國小"
            },
            "geometry": {
                "type": "Point",
                "coordinates": [
                    121.216742,
                    25.005125
                ]
            }
        },
        {
            "type": "Feature",
            "properties": {
                "code": "33202007230001",
                "name": "私立士群語文數學文理短期補習班",
                "county": "桃園市",
                "class": "文理類,外語類,其他類,",
                "students": "國小,國中"
            },
            "geometry": {
                "type": "Point",
                "coordinates": [
                    121.28845,
                    24.985327
                ]
            }
        },
        {
            "type": "Feature",
            "properties": {
                "code": "33202008110001",
                "name": "精英國際教育管理顧問股份有限公司私立精湛文理短期補習班",
                "county": "桃園市",
                "class": "文理類,",
                "students": "國中"
            },
            "geometry": {
                "type": "Point",
                "coordinates": [
                    121.257863,
                    25.076443
                ]
            }
        },
        {
            "type": "Feature",
            "properties": {
                "code": "33202008120001",
                "name": "私立佳樂語文短期補習班",
                "county": "桃園市",
                "class": "外語類,",
                "students": "國小,國中,高中"
            },
            "geometry": {
                "type": "Point",
                "coordinates": [
                    121.148392,
                    24.912931
                ]
            }
        },
        {
            "type": "Feature",
            "properties": {
                "code": "33202008210001",
                "name": "私立允星數學文理短期補習班",
                "county": "桃園市",
                "class": "文理類,其他類,",
                "students": "國中,國小"
            },
            "geometry": {
                "type": "Point",
                "coordinates": [
                    121.220373,
                    24.947292
                ]
            }
        },
        {
            "type": "Feature",
            "properties": {
                "code": "33202009010001",
                "name": "私立藝文藝術城堡音樂美術短期補習班",
                "county": "桃園市",
                "class": "音樂、舞蹈類,美術、書法、攝影、美工設計、圍棋類,",
                "students": "國小"
            },
            "geometry": {
                "type": "Point",
                "coordinates": [
                    121.301514,
                    25.018374
                ]
            }
        },
        {
            "type": "Feature",
            "properties": {
                "code": "33202009170001",
                "name": "私立冠荏語文數學文理短期補習班",
                "county": "桃園市",
                "class": "文理類,外語類,其他類,",
                "students": "國中,國小,高中"
            },
            "geometry": {
                "type": "Point",
                "coordinates": [
                    121.170623,
                    24.906348
                ]
            }
        },
        {
            "type": "Feature",
            "properties": {
                "code": "33202009300001",
                "name": "私立辰學語文文理數學短期補習班",
                "county": "桃園市",
                "class": "文理類,外語類,",
                "students": "國中,國小,高中"
            },
            "geometry": {
                "type": "Point",
                "coordinates": [
                    121.292666,
                    25.021536
                ]
            }
        },
        {
            "type": "Feature",
            "properties": {
                "code": "33202010060001",
                "name": "私立麥思特彼斯文理語文數學短期補習班",
                "county": "桃園市",
                "class": "文理類,外語類,其他類,",
                "students": "國小,國中"
            },
            "geometry": {
                "type": "Point",
                "coordinates": [
                    121.304146,
                    25.020605
                ]
            }
        },
        {
            "type": "Feature",
            "properties": {
                "code": "33202010080001",
                "name": "私立蓋文文理語文短期補習班",
                "county": "桃園市",
                "class": "文理類,外語類,",
                "students": "國中,國小"
            },
            "geometry": {
                "type": "Point",
                "coordinates": [
                    121.213432,
                    25.006755
                ]
            }
        },
        {
            "type": "Feature",
            "properties": {
                "code": "33202010120001",
                "name": "私立思研文理短期補習班",
                "county": "桃園市",
                "class": "文理類,",
                "students": "高中"
            },
            "geometry": {
                "type": "Point",
                "coordinates": [
                    121.203706,
                    24.94357
                ]
            }
        },
        {
            "type": "Feature",
            "properties": {
                "code": "33202010160001",
                "name": "私立嘉全語文短期補習班",
                "county": "桃園市",
                "class": "外語類,",
                "students": "國小"
            },
            "geometry": {
                "type": "Point",
                "coordinates": [
                    121.300095,
                    24.959007
                ]
            }
        },
        {
            "type": "Feature",
            "properties": {
                "code": "33202010230001",
                "name": "私立淇奧數學語文短期補習班",
                "county": "桃園市",
                "class": "外語類,其他類,",
                "students": "國小,國中"
            },
            "geometry": {
                "type": "Point",
                "coordinates": [
                    121.285841,
                    25.040676
                ]
            }
        },
        {
            "type": "Feature",
            "properties": {
                "code": "33202010270001",
                "name": "私立晉儒語文數學短期補習班",
                "county": "桃園市",
                "class": "文理類,外語類,",
                "students": "國小,國中"
            },
            "geometry": {
                "type": "Point",
                "coordinates": [
                    121.314447,
                    24.980004
                ]
            }
        },
        {
            "type": "Feature",
            "properties": {
                "code": "33202010280001",
                "name": "私立力成數學語文短期補習班",
                "county": "桃園市",
                "class": "外語類,其他類,",
                "students": "國小"
            },
            "geometry": {
                "type": "Point",
                "coordinates": [
                    121.257974,
                    24.975656
                ]
            }
        },
        {
            "type": "Feature",
            "properties": {
                "code": "33202010290001",
                "name": "私立創思學習文理數學語文短期補習班市府分班",
                "county": "桃園市",
                "class": "文理類,外語類,",
                "students": "國中,國小,高中"
            },
            "geometry": {
                "type": "Point",
                "coordinates": [
                    121.301653,
                    24.992035
                ]
            }
        },
        {
            "type": "Feature",
            "properties": {
                "code": "33202011110001",
                "name": "私立睿緯文理語文短期補習班",
                "county": "桃園市",
                "class": "文理類,外語類,",
                "students": "國中,國小"
            },
            "geometry": {
                "type": "Point",
                "coordinates": [
                    121.166638,
                    24.957046
                ]
            }
        },
        {
            "type": "Feature",
            "properties": {
                "code": "33202011160001",
                "name": "私立威妮斯語文數學文理短期補習班",
                "county": "桃園市",
                "class": "文理類,外語類,其他類,",
                "students": "國小,國中"
            },
            "geometry": {
                "type": "Point",
                "coordinates": [
                    121.135829,
                    25.016124
                ]
            }
        },
        {
            "type": "Feature",
            "properties": {
                "code": "33202011160002",
                "name": "私立格林威治英語短期補習班",
                "county": "桃園市",
                "class": "外語類,",
                "students": "高中,國小,國中"
            },
            "geometry": {
                "type": "Point",
                "coordinates": [
                    121.383761,
                    25.055105
                ]
            }
        },
        {
            "type": "Feature",
            "properties": {
                "code": "33202011180001",
                "name": "私立柏克萊語文數學短期補習班",
                "county": "桃園市",
                "class": "外語類,其他類,",
                "students": "國小"
            },
            "geometry": {
                "type": "Point",
                "coordinates": [
                    121.231144,
                    24.935504
                ]
            }
        },
        {
            "type": "Feature",
            "properties": {
                "code": "33202011230001",
                "name": "私立裕登美語文理短期補習班",
                "county": "桃園市",
                "class": "文理類,外語類,",
                "students": "國中,國小"
            },
            "geometry": {
                "type": "Point",
                "coordinates": [
                    121.202858,
                    24.916882
                ]
            }
        },
        {
            "type": "Feature",
            "properties": {
                "code": "33202011270001",
                "name": "私立文緯文理短期補習班",
                "county": "桃園市",
                "class": "文理類,外語類,",
                "students": "國小,國中"
            },
            "geometry": {
                "type": "Point",
                "coordinates": [
                    121.168397,
                    24.959054
                ]
            }
        },
        {
            "type": "Feature",
            "properties": {
                "code": "33202012070001",
                "name": "私立小蒲公英數學文理美語作文短期補習班永順分班",
                "county": "桃園市",
                "class": "文理類,外語類,",
                "students": "國小,國中"
            },
            "geometry": {
                "type": "Point",
                "coordinates": [
                    121.29626,
                    25.008044
                ]
            }
        },
        {
            "type": "Feature",
            "properties": {
                "code": "33202012080001",
                "name": "東和樂器木業股份有限公司附設私立東和音樂技藝短期補習班",
                "county": "桃園市",
                "class": "音樂、舞蹈類,",
                "students": "國中(含)以上"
            },
            "geometry": {
                "type": "Point",
                "coordinates": [
                    121.3078,
                    24.989189
                ]
            }
        },
        {
            "type": "Feature",
            "properties": {
                "code": "33202012110001",
                "name": "私立天堂鳥英語短期補習班",
                "county": "桃園市",
                "class": "外語類,",
                "students": "成人(18歲以上),國小,國中,高中"
            },
            "geometry": {
                "type": "Point",
                "coordinates": [
                    121.219335,
                    24.857738
                ]
            }
        },
        {
            "type": "Feature",
            "properties": {
                "code": "33202012160001",
                "name": "私立佳恩語文數學文理短期補習班",
                "county": "桃園市",
                "class": "文理類,外語類,",
                "students": "國小,國中"
            },
            "geometry": {
                "type": "Point",
                "coordinates": [
                    121.303281,
                    24.968668
                ]
            }
        },
        {
            "type": "Feature",
            "properties": {
                "code": "33202012210002",
                "name": "揚信股份有限公司附設私立揚才文華文理短期補習班",
                "county": "桃園市",
                "class": "文理類,",
                "students": "國中"
            },
            "geometry": {
                "type": "Point",
                "coordinates": [
                    121.363108,
                    25.051672
                ]
            }
        },
        {
            "type": "Feature",
            "properties": {
                "code": "33202012300001",
                "name": "極合教育科技股份有限公司附設私立極上一對一站前文理短期補習班",
                "county": "桃園市",
                "class": "文理類,外語類,",
                "students": "國小,國中,高中"
            },
            "geometry": {
                "type": "Point",
                "coordinates": [
                    121.311935,
                    24.99244
                ]
            }
        },
        {
            "type": "Feature",
            "properties": {
                "code": "33202012300002",
                "name": "私立莫大衛英語短期補習班",
                "county": "桃園市",
                "class": "外語類,",
                "students": "國小"
            },
            "geometry": {
                "type": "Point",
                "coordinates": [
                    121.296007,
                    25.013459
                ]
            }
        },
        {
            "type": "Feature",
            "properties": {
                "code": "33202102050001",
                "name": "私立匯儒文理短期補習班",
                "county": "桃園市",
                "class": "文理類,",
                "students": "國中,高中"
            },
            "geometry": {
                "type": "Point",
                "coordinates": [
                    121.198744,
                    25.060279
                ]
            }
        },
        {
            "type": "Feature",
            "properties": {
                "code": "33202103190001",
                "name": "私立鵬遠文理數學美語短期補習班",
                "county": "桃園市",
                "class": "文理類,外語類,其他類,",
                "students": "國中,國小"
            },
            "geometry": {
                "type": "Point",
                "coordinates": [
                    121.217398,
                    24.956907
                ]
            }
        },
        {
            "type": "Feature",
            "properties": {
                "code": "33202103250001",
                "name": "私立優樂兒語文文理數學短期補習班",
                "county": "桃園市",
                "class": "文理類,外語類,其他類,",
                "students": "國小,國中"
            },
            "geometry": {
                "type": "Point",
                "coordinates": [
                    121.286334,
                    24.928273
                ]
            }
        },
        {
            "type": "Feature",
            "properties": {
                "code": "33202104060001",
                "name": "勝恩教育有限公司附設私立勝芯語文文理短期補習班",
                "county": "桃園市",
                "class": "文理類,外語類,",
                "students": "國小,國中"
            },
            "geometry": {
                "type": "Point",
                "coordinates": [
                    121.247452,
                    24.978055
                ]
            }
        },
        {
            "type": "Feature",
            "properties": {
                "code": "33202104060002",
                "name": "私立方華內歷數學語文文理短期補習班",
                "county": "桃園市",
                "class": "文理類,外語類,其他類,",
                "students": "國小,國中"
            },
            "geometry": {
                "type": "Point",
                "coordinates": [
                    121.249091,
                    24.970478
                ]
            }
        },
        {
            "type": "Feature",
            "properties": {
                "code": "33202104060003",
                "name": "私立福克斯文理語文數學短期補習班青埔分班",
                "county": "桃園市",
                "class": "文理類,外語類,其他類,",
                "students": "國中,國小"
            },
            "geometry": {
                "type": "Point",
                "coordinates": [
                    121.210126,
                    25.005092
                ]
            }
        },
        {
            "type": "Feature",
            "properties": {
                "code": "33202104080001",
                "name": "私立富國機電短期補習班",
                "county": "桃園市",
                "class": "電機、汽車修護、建築、工藝、製圖類,",
                "students": "成人(18歲以上)"
            },
            "geometry": {
                "type": "Point",
                "coordinates": [
                    121.293992,
                    24.990492
                ]
            }
        },
        {
            "type": "Feature",
            "properties": {
                "code": "33202104090001",
                "name": "私立原選製菓烘焙短期補習班",
                "county": "桃園市",
                "class": "家政、插花、烹飪類,",
                "students": "成人(18歲以上)"
            },
            "geometry": {
                "type": "Point",
                "coordinates": [
                    121.238781,
                    24.957452
                ]
            }
        },
        {
            "type": "Feature",
            "properties": {
                "code": "33202104150001",
                "name": "朝陽富元教育股份有限公司附設私立朝揚文理短期補習班大業分班",
                "county": "桃園市",
                "class": "文理類,",
                "students": "國小"
            },
            "geometry": {
                "type": "Point",
                "coordinates": [
                    121.317042,
                    25.007811
                ]
            }
        },
        {
            "type": "Feature",
            "properties": {
                "code": "33202104190001",
                "name": "奕騫文創有限公司附設私立風雲閣文理短期補習班",
                "county": "桃園市",
                "class": "文理類,",
                "students": "國中"
            },
            "geometry": {
                "type": "Point",
                "coordinates": [
                    121.308209,
                    25.009896
                ]
            }
        },
        {
            "type": "Feature",
            "properties": {
                "code": "33202104260001",
                "name": "私立赫成文理短期補習班",
                "county": "桃園市",
                "class": "文理類,",
                "students": "高中"
            },
            "geometry": {
                "type": "Point",
                "coordinates": [
                    121.226183,
                    24.956043
                ]
            }
        },
        {
            "type": "Feature",
            "properties": {
                "code": "33202104260002",
                "name": "私立小立偉語文數學自然短期補習班",
                "county": "桃園市",
                "class": "外語類,其他類,",
                "students": "國小"
            },
            "geometry": {
                "type": "Point",
                "coordinates": [
                    121.288839,
                    24.986815
                ]
            }
        },
        {
            "type": "Feature",
            "properties": {
                "code": "33202104270001",
                "name": "私立巧圓技藝文理短期補習班",
                "county": "桃園市",
                "class": "外語類,商類：珠算、心算、會計,其他類,",
                "students": "國小"
            },
            "geometry": {
                "type": "Point",
                "coordinates": [
                    121.250127,
                    24.978601
                ]
            }
        },
        {
            "type": "Feature",
            "properties": {
                "code": "33202104280001",
                "name": "私立何嘉仁樂福美語短期補習班",
                "county": "桃園市",
                "class": "外語類,",
                "students": "國小,國中"
            },
            "geometry": {
                "type": "Point",
                "coordinates": [
                    121.220464,
                    24.964634
                ]
            }
        },
        {
            "type": "Feature",
            "properties": {
                "code": "33202105030001",
                "name": "私立博聖數學語文短期補習班",
                "county": "桃園市",
                "class": "外語類,其他類,",
                "students": "國小,國小、國中、高中"
            },
            "geometry": {
                "type": "Point",
                "coordinates": [
                    121.297293,
                    25.014545
                ]
            }
        },
        {
            "type": "Feature",
            "properties": {
                "code": "33202105050001",
                "name": "朝陽富元教育股份有限公司附設私立朝揚升大文理短期補習班",
                "county": "桃園市",
                "class": "文理類,",
                "students": "高中"
            },
            "geometry": {
                "type": "Point",
                "coordinates": [
                    121.311358,
                    24.990182
                ]
            }
        },
        {
            "type": "Feature",
            "properties": {
                "code": "33202105050002",
                "name": "私立第一志願文理短期補習班",
                "county": "桃園市",
                "class": "文理類,",
                "students": "國中"
            },
            "geometry": {
                "type": "Point",
                "coordinates": [
                    121.235068,
                    24.838989
                ]
            }
        },
        {
            "type": "Feature",
            "properties": {
                "code": "33202106160001",
                "name": "私立自強文理技藝短期補習班",
                "county": "桃園市",
                "class": "文理類,外語類,資訊類,美術、書法、攝影、美工設計、圍棋類,其他類,",
                "students": "國中,高中,國小,成人(18歲以上)"
            },
            "geometry": {
                "type": "Point",
                "coordinates": [
                    121.258267,
                    24.973711
                ]
            }
        },
        {
            "type": "Feature",
            "properties": {
                "code": "33202106180001",
                "name": "私立儒林大成文理短期補習班",
                "county": "桃園市",
                "class": "文理類,",
                "students": "國中,高中"
            },
            "geometry": {
                "type": "Point",
                "coordinates": [
                    121.300015,
                    24.957702
                ]
            }
        },
        {
            "type": "Feature",
            "properties": {
                "code": "33202107200001",
                "name": "愛可米國際文化有限公司附設私立愛學苑語文數學文理短期補習班",
                "county": "桃園市",
                "class": "文理類,外語類,其他類,",
                "students": "國小,國中"
            },
            "geometry": {
                "type": "Point",
                "coordinates": [
                    121.257324,
                    25.021286
                ]
            }
        },
        {
            "type": "Feature",
            "properties": {
                "code": "33202108060001",
                "name": "弋果文化事業股份有限公司附設私立弋果美語文理數學短期補習班",
                "county": "桃園市",
                "class": "文理類,外語類,",
                "students": "國小,國中"
            },
            "geometry": {
                "type": "Point",
                "coordinates": [
                    121.317646,
                    25.000609
                ]
            }
        },
        {
            "type": "Feature",
            "properties": {
                "code": "33202108100001",
                "name": "私立樂光音樂短期補習班",
                "county": "桃園市",
                "class": "音樂、舞蹈類,",
                "students": "國小,國中,高中,成人(18歲以上)"
            },
            "geometry": {
                "type": "Point",
                "coordinates": [
                    121.226466,
                    24.965468
                ]
            }
        },
        {
            "type": "Feature",
            "properties": {
                "code": "33202108120001",
                "name": "私立辰星文理短期補習班",
                "county": "桃園市",
                "class": "文理類,外語類,其他類,",
                "students": "國中,高中,國小"
            },
            "geometry": {
                "type": "Point",
                "coordinates": [
                    121.21218,
                    25.005934
                ]
            }
        },
        {
            "type": "Feature",
            "properties": {
                "code": "33202108160001",
                "name": "私立光樹文理語文短期補習班",
                "county": "桃園市",
                "class": "文理類,外語類,",
                "students": "國小,國中"
            },
            "geometry": {
                "type": "Point",
                "coordinates": [
                    121.257083,
                    25.025947
                ]
            }
        },
        {
            "type": "Feature",
            "properties": {
                "code": "33202108160002",
                "name": "私立可娃拉美語短期補習班",
                "county": "桃園市",
                "class": "外語類,",
                "students": "國小,國中、高中,成人(18歲以上)"
            },
            "geometry": {
                "type": "Point",
                "coordinates": [
                    121.307922,
                    25.006872
                ]
            }
        },
        {
            "type": "Feature",
            "properties": {
                "code": "33202108300001",
                "name": "私立北一文理美語數學短期補習班慈文分班",
                "county": "桃園市",
                "class": "文理類,外語類,",
                "students": "國中,國小"
            },
            "geometry": {
                "type": "Point",
                "coordinates": [
                    121.299953,
                    25.011982
                ]
            }
        },
        {
            "type": "Feature",
            "properties": {
                "code": "33202109010001",
                "name": "贊鴻學輔股份有限公司附設私立創意國文理語文數學美術短期補習班",
                "county": "桃園市",
                "class": "文理類,外語類,美術、書法、攝影、美工設計、圍棋類,其他類,",
                "students": "國中,高中,國小"
            },
            "geometry": {
                "type": "Point",
                "coordinates": [
                    121.297224,
                    25.050518
                ]
            }
        },
        {
            "type": "Feature",
            "properties": {
                "code": "33202109060001",
                "name": "私立琳恩語文數學文理短期補習班",
                "county": "桃園市",
                "class": "外語類,其他類,",
                "students": "國小,國中"
            },
            "geometry": {
                "type": "Point",
                "coordinates": [
                    121.282875,
                    24.927767
                ]
            }
        },
        {
            "type": "Feature",
            "properties": {
                "code": "33202109060002",
                "name": "私立栩格美語短期補習班",
                "county": "桃園市",
                "class": "外語類,",
                "students": "國小"
            },
            "geometry": {
                "type": "Point",
                "coordinates": [
                    121.217913,
                    24.865865
                ]
            }
        },
        {
            "type": "Feature",
            "properties": {
                "code": "33202109070001",
                "name": "私立學匯語文文理數學短期補習班大崙分班",
                "county": "桃園市",
                "class": "文理類,外語類,其他類,",
                "students": "國小,國中"
            },
            "geometry": {
                "type": "Point",
                "coordinates": [
                    121.181018,
                    24.988544
                ]
            }
        },
        {
            "type": "Feature",
            "properties": {
                "code": "33202109080001",
                "name": "私立陳明文理短期補習班",
                "county": "桃園市",
                "class": "文理類,",
                "students": "國中"
            },
            "geometry": {
                "type": "Point",
                "coordinates": [
                    121.205245,
                    24.950548
                ]
            }
        },
        {
            "type": "Feature",
            "properties": {
                "code": "33202109110001",
                "name": "私立永學語文數學短期補習班",
                "county": "桃園市",
                "class": "外語類,其他類,",
                "students": "國小"
            },
            "geometry": {
                "type": "Point",
                "coordinates": [
                    121.29115,
                    25.018631
                ]
            }
        },
        {
            "type": "Feature",
            "properties": {
                "code": "33202109130001",
                "name": "財團法人人本教育文教基金會附設桃園市私立數學想想國數學文理短期補習班",
                "county": "桃園市",
                "class": "文理類,其他類,",
                "students": "國小,國中"
            },
            "geometry": {
                "type": "Point",
                "coordinates": [
                    121.296007,
                    25.013459
                ]
            }
        },
        {
            "type": "Feature",
            "properties": {
                "code": "33202109130002",
                "name": "私立福克斯文理語文數學短期補習班義興分班",
                "county": "桃園市",
                "class": "文理類,外語類,其他類,",
                "students": "國中,國小"
            },
            "geometry": {
                "type": "Point",
                "coordinates": [
                    121.209633,
                    24.950958
                ]
            }
        },
        {
            "type": "Feature",
            "properties": {
                "code": "33202109140001",
                "name": "私立藝典美術短期補習班",
                "county": "桃園市",
                "class": "美術、書法、攝影、美工設計、圍棋類,",
                "students": "國小,國中,高中"
            },
            "geometry": {
                "type": "Point",
                "coordinates": [
                    121.260366,
                    24.964548
                ]
            }
        },
        {
            "type": "Feature",
            "properties": {
                "code": "33202109170001",
                "name": "私立李紹陽揚眉文理語文數學短期補習班",
                "county": "桃園市",
                "class": "文理類,外語類,其他類,",
                "students": "國中,高中,國小"
            },
            "geometry": {
                "type": "Point",
                "coordinates": [
                    121.145413,
                    24.910938
                ]
            }
        },
        {
            "type": "Feature",
            "properties": {
                "code": "33202109170002",
                "name": "私立嶺先語文文理數學短期補習班",
                "county": "桃園市",
                "class": "文理類,外語類,其他類,",
                "students": "國小,國中"
            },
            "geometry": {
                "type": "Point",
                "coordinates": [
                    121.174499,
                    24.959868
                ]
            }
        },
        {
            "type": "Feature",
            "properties": {
                "code": "33202109290001",
                "name": "私立御言文理短期補習班",
                "county": "桃園市",
                "class": "文理類,外語類,",
                "students": "國中,高中,國小"
            },
            "geometry": {
                "type": "Point",
                "coordinates": [
                    121.247032,
                    24.976464
                ]
            }
        },
        {
            "type": "Feature",
            "properties": {
                "code": "33202110040001",
                "name": "私立考上文理短期補習班",
                "county": "桃園市",
                "class": "文理類,",
                "students": "升四技二專大專"
            },
            "geometry": {
                "type": "Point",
                "coordinates": [
                    121.226435,
                    24.955347
                ]
            }
        },
        {
            "type": "Feature",
            "properties": {
                "code": "33202110060001",
                "name": "私立風禾日光語文數學短期補習班",
                "county": "桃園市",
                "class": "外語類,其他類,",
                "students": "國小"
            },
            "geometry": {
                "type": "Point",
                "coordinates": [
                    121.299194,
                    25.004422
                ]
            }
        },
        {
            "type": "Feature",
            "properties": {
                "code": "33202110200001",
                "name": "私立知新數學語文短期補習班",
                "county": "桃園市",
                "class": "外語類,其他類,",
                "students": "國小,國中,高中"
            },
            "geometry": {
                "type": "Point",
                "coordinates": [
                    121.231506,
                    24.950429
                ]
            }
        },
        {
            "type": "Feature",
            "properties": {
                "code": "33202110200002",
                "name": "私立安杰昇語文文理短期補習班",
                "county": "桃園市",
                "class": "外語類,其他類,",
                "students": "國小,國中"
            },
            "geometry": {
                "type": "Point",
                "coordinates": [
                    121.292031,
                    25.040839
                ]
            }
        },
        {
            "type": "Feature",
            "properties": {
                "code": "33202110290001",
                "name": "私立樂恩語文珠算數學文理短期補習班",
                "county": "桃園市",
                "class": "文理類,外語類,商類：珠算、心算、會計,其他類,",
                "students": "國小,高中,國中"
            },
            "geometry": {
                "type": "Point",
                "coordinates": [
                    121.296802,
                    24.95832
                ]
            }
        },
        {
            "type": "Feature",
            "properties": {
                "code": "33202111030001",
                "name": "高明一對一學習有限公司附設私立高銘一對一文理數學語文電腦短期補習班",
                "county": "桃園市",
                "class": "文理類,外語類,資訊類,其他類,",
                "students": "國中,高中,國小,成人(18歲以上)"
            },
            "geometry": {
                "type": "Point",
                "coordinates": [
                    121.224391,
                    24.955843
                ]
            }
        },
        {
            "type": "Feature",
            "properties": {
                "code": "33202111110001",
                "name": "新貴個別指導股份有限公司附設私立新貴同得文理語文數學短期補習班",
                "county": "桃園市",
                "class": "文理類,外語類,",
                "students": "國中、高中,國小"
            },
            "geometry": {
                "type": "Point",
                "coordinates": [
                    121.294883,
                    25.014443
                ]
            }
        },
        {
            "type": "Feature",
            "properties": {
                "code": "33202111240001",
                "name": "私立樂學英語文理短期補習班",
                "county": "桃園市",
                "class": "文理類,外語類,",
                "students": "國小、國中"
            },
            "geometry": {
                "type": "Point",
                "coordinates": [
                    121.38359,
                    25.052298
                ]
            }
        },
        {
            "type": "Feature",
            "properties": {
                "code": "33202111290001",
                "name": "威學文教有限公司附設私立雋立文理語文數學短期補習班",
                "county": "桃園市",
                "class": "文理類,外語類,",
                "students": "國中,高中,國小"
            },
            "geometry": {
                "type": "Point",
                "coordinates": [
                    121.247375,
                    24.97266
                ]
            }
        },
        {
            "type": "Feature",
            "properties": {
                "code": "33202112060001",
                "name": "私立群益烹飪調酒技藝短期補習班",
                "county": "桃園市",
                "class": "家政、插花、烹飪類,",
                "students": "15歲以上"
            },
            "geometry": {
                "type": "Point",
                "coordinates": [
                    121.229996,
                    24.952689
                ]
            }
        },
        {
            "type": "Feature",
            "properties": {
                "code": "33202112140001",
                "name": "私立喬依思美語數學文理短期補習班",
                "county": "桃園市",
                "class": "文理類,",
                "students": "國小,國中"
            },
            "geometry": {
                "type": "Point",
                "coordinates": [
                    121.222057,
                    24.965806
                ]
            }
        },
        {
            "type": "Feature",
            "properties": {
                "code": "33202112200001",
                "name": "私立蕃茄樹文理技藝短期補習班",
                "county": "桃園市",
                "class": "美術、書法、攝影、美工設計、圍棋類,其他類,",
                "students": "國小"
            },
            "geometry": {
                "type": "Point",
                "coordinates": [
                    121.301635,
                    25.051735
                ]
            }
        },
        {
            "type": "Feature",
            "properties": {
                "code": "33202112200002",
                "name": "私立頂尖資優數學語文文理短期補習班",
                "county": "桃園市",
                "class": "文理類,外語類,",
                "students": "國小,國中,高中"
            },
            "geometry": {
                "type": "Point",
                "coordinates": [
                    121.231109,
                    24.952037
                ]
            }
        },
        {
            "type": "Feature",
            "properties": {
                "code": "33202112230001",
                "name": "私立薪傳數學語文文理短期補習班",
                "county": "桃園市",
                "class": "文理類,外語類,",
                "students": "國小、國中、高中"
            },
            "geometry": {
                "type": "Point",
                "coordinates": [
                    121.366968,
                    25.057381
                ]
            }
        },
        {
            "type": "Feature",
            "properties": {
                "code": "33202201030001",
                "name": "私立義華文理短期補習班",
                "county": "桃園市",
                "class": "文理類,",
                "students": "國中,高中"
            },
            "geometry": {
                "type": "Point",
                "coordinates": [
                    121.247707,
                    24.942676
                ]
            }
        },
        {
            "type": "Feature",
            "properties": {
                "code": "33202201190001",
                "name": "私立翊成文理短期補習班",
                "county": "桃園市",
                "class": "文理類,外語類,其他類,",
                "students": "國小,國中"
            },
            "geometry": {
                "type": "Point",
                "coordinates": [
                    121.221212,
                    24.952585
                ]
            }
        },
        {
            "type": "Feature",
            "properties": {
                "code": "33202202070001",
                "name": "私立天鉞文理語文短期補習班",
                "county": "桃園市",
                "class": "文理類,外語類,",
                "students": "國中,國小"
            },
            "geometry": {
                "type": "Point",
                "coordinates": [
                    121.405421,
                    25.01909
                ]
            }
        },
        {
            "type": "Feature",
            "properties": {
                "code": "33202202090001",
                "name": "私立文言文理短期補習班",
                "county": "桃園市",
                "class": "文理類,外語類,",
                "students": "國小,國中"
            },
            "geometry": {
                "type": "Point",
                "coordinates": [
                    121.282404,
                    24.927783
                ]
            }
        },
        {
            "type": "Feature",
            "properties": {
                "code": "33202202180001",
                "name": "私立雙輝文理短期補習班",
                "county": "桃園市",
                "class": "文理類,外語類,",
                "students": "國小,國中,高中"
            },
            "geometry": {
                "type": "Point",
                "coordinates": [
                    121.298328,
                    25.020745
                ]
            }
        },
        {
            "type": "Feature",
            "properties": {
                "code": "33202203150001",
                "name": "私立方華文理短期補習班龍岡分班",
                "county": "桃園市",
                "class": "文理類,",
                "students": "高中,國中"
            },
            "geometry": {
                "type": "Point",
                "coordinates": [
                    121.252794,
                    24.929088
                ]
            }
        },
        {
            "type": "Feature",
            "properties": {
                "code": "33202203150002",
                "name": "私立奧斯汀文理短期補習班國際教育分班",
                "county": "桃園市",
                "class": "文理類,外語類,",
                "students": "國小,國中"
            },
            "geometry": {
                "type": "Point",
                "coordinates": [
                    121.29277,
                    25.021583
                ]
            }
        },
        {
            "type": "Feature",
            "properties": {
                "code": "33202203290001",
                "name": "私立文鼎語文文理短期補習班",
                "county": "桃園市",
                "class": "文理類,外語類,其他類,",
                "students": "國小,國中"
            },
            "geometry": {
                "type": "Point",
                "coordinates": [
                    121.304802,
                    24.965232
                ]
            }
        },
        {
            "type": "Feature",
            "properties": {
                "code": "33202204140001",
                "name": "私立晨曦文理短期補習班",
                "county": "桃園市",
                "class": "文理類,",
                "students": "國中,國小"
            },
            "geometry": {
                "type": "Point",
                "coordinates": [
                    121.404508,
                    25.018556
                ]
            }
        },
        {
            "type": "Feature",
            "properties": {
                "code": "33202204140002",
                "name": "私立鴻鵠文理短期補習班",
                "county": "桃園市",
                "class": "文理類,外語類,其他類,",
                "students": "國中,國小"
            },
            "geometry": {
                "type": "Point",
                "coordinates": [
                    121.299201,
                    25.054774
                ]
            }
        },
        {
            "type": "Feature",
            "properties": {
                "code": "33202204150001",
                "name": "私立旭揚文理短期補習班",
                "county": "桃園市",
                "class": "外語類,其他類,",
                "students": "國小"
            },
            "geometry": {
                "type": "Point",
                "coordinates": [
                    121.252332,
                    24.918183
                ]
            }
        },
        {
            "type": "Feature",
            "properties": {
                "code": "33202205020001",
                "name": "私立雪米文理短期補習班",
                "county": "桃園市",
                "class": "文理類,",
                "students": "高中,國中,國小"
            },
            "geometry": {
                "type": "Point",
                "coordinates": [
                    121.318627,
                    24.995491
                ]
            }
        },
        {
            "type": "Feature",
            "properties": {
                "code": "33202205040001",
                "name": "私立科思文理短期補習班",
                "county": "桃園市",
                "class": "文理類,",
                "students": "國中"
            },
            "geometry": {
                "type": "Point",
                "coordinates": [
                    121.296953,
                    24.956869
                ]
            }
        },
        {
            "type": "Feature",
            "properties": {
                "code": "33202205050001",
                "name": "私立金赫文理短期補習班",
                "county": "桃園市",
                "class": "文理類,",
                "students": "國中"
            },
            "geometry": {
                "type": "Point",
                "coordinates": [
                    121.230103,
                    24.949545
                ]
            }
        },
        {
            "type": "Feature",
            "properties": {
                "code": "33202205090001",
                "name": "學旅文創有限公司附設私立舞動世界藝文技藝短期補習班",
                "county": "桃園市",
                "class": "音樂、舞蹈類,",
                "students": "成人(18歲以上),國小"
            },
            "geometry": {
                "type": "Point",
                "coordinates": [
                    121.297527,
                    25.018779
                ]
            }
        },
        {
            "type": "Feature",
            "properties": {
                "code": "33202205100001",
                "name": "極合教育科技股份有限公司附設私立極上一對一南平文理短期補習班",
                "county": "桃園市",
                "class": "文理類,",
                "students": "國中,高中"
            },
            "geometry": {
                "type": "Point",
                "coordinates": [
                    121.293145,
                    25.016124
                ]
            }
        },
        {
            "type": "Feature",
            "properties": {
                "code": "33202205190001",
                "name": "何嘉仁文教事業股份有限公司附設私立華亞文理短期補習班",
                "county": "桃園市",
                "class": "文理類,外語類,",
                "students": "國小"
            },
            "geometry": {
                "type": "Point",
                "coordinates": [
                    121.382222,
                    25.048822
                ]
            }
        },
        {
            "type": "Feature",
            "properties": {
                "code": "33202205200001",
                "name": "私立辰米技藝短期補習班",
                "county": "桃園市",
                "class": "美術、書法、攝影、美工設計、圍棋類,",
                "students": "國小,國中"
            },
            "geometry": {
                "type": "Point",
                "coordinates": [
                    121.289812,
                    24.88201
                ]
            }
        },
        {
            "type": "Feature",
            "properties": {
                "code": "33202205270001",
                "name": "私立帝逵文理技藝短期補習班",
                "county": "桃園市",
                "class": "文理類,外語類,音樂、舞蹈類,美術、書法、攝影、美工設計、圍棋類,",
                "students": "國小,國小、國中、高中"
            },
            "geometry": {
                "type": "Point",
                "coordinates": [
                    121.299279,
                    25.020346
                ]
            }
        },
        {
            "type": "Feature",
            "properties": {
                "code": "33202205300001",
                "name": "青山塾股份有限公司附設私立青山塾文理短期補習班",
                "county": "桃園市",
                "class": "文理類,外語類,",
                "students": "國小,國中,高中"
            },
            "geometry": {
                "type": "Point",
                "coordinates": [
                    121.38837,
                    25.040588
                ]
            }
        },
        {
            "type": "Feature",
            "properties": {
                "code": "33202206100001",
                "name": "私立諾異斯音樂技藝短期補習班",
                "county": "桃園市",
                "class": "音樂、舞蹈類,",
                "students": "國小至成人"
            },
            "geometry": {
                "type": "Point",
                "coordinates": [
                    121.255711,
                    25.024702
                ]
            }
        },
        {
            "type": "Feature",
            "properties": {
                "code": "33202206160001",
                "name": "私立李萬文理短期補習班",
                "county": "桃園市",
                "class": "文理類,",
                "students": "國小,國中"
            },
            "geometry": {
                "type": "Point",
                "coordinates": [
                    121.216643,
                    24.857304
                ]
            }
        },
        {
            "type": "Feature",
            "properties": {
                "code": "33202206160002",
                "name": "私立閎墨文理短期補習班",
                "county": "桃園市",
                "class": "文理類,外語類,其他類,",
                "students": "國小,國中"
            },
            "geometry": {
                "type": "Point",
                "coordinates": [
                    121.207334,
                    24.951363
                ]
            }
        },
        {
            "type": "Feature",
            "properties": {
                "code": "33202206200001",
                "name": "私立起點文理短期補習班",
                "county": "桃園市",
                "class": "文理類,",
                "students": "國中,高中"
            },
            "geometry": {
                "type": "Point",
                "coordinates": [
                    121.288322,
                    24.990449
                ]
            }
        },
        {
            "type": "Feature",
            "properties": {
                "code": "33202206220001",
                "name": "私立誠禎文理短期補習班",
                "county": "桃園市",
                "class": "文理類,外語類,",
                "students": "國小,國中"
            },
            "geometry": {
                "type": "Point",
                "coordinates": [
                    121.217661,
                    24.943608
                ]
            }
        },
        {
            "type": "Feature",
            "properties": {
                "code": "33202206230001",
                "name": "私立精銳技藝短期補習班",
                "county": "桃園市",
                "class": "美術、書法、攝影、美工設計、圍棋類,",
                "students": "國小"
            },
            "geometry": {
                "type": "Point",
                "coordinates": [
                    121.293348,
                    25.022089
                ]
            }
        },
        {
            "type": "Feature",
            "properties": {
                "code": "33202207010001",
                "name": "私立芸軒文理技藝短期補習班仁和分班",
                "county": "桃園市",
                "class": "外語類,音樂、舞蹈類,",
                "students": "國小"
            },
            "geometry": {
                "type": "Point",
                "coordinates": [
                    121.275282,
                    24.898726
                ]
            }
        },
        {
            "type": "Feature",
            "properties": {
                "code": "33202207050001",
                "name": "品宏事業有限公司附設私立品宏文理短期補習班",
                "county": "桃園市",
                "class": "文理類,外語類,",
                "students": "國中,國小,高中"
            },
            "geometry": {
                "type": "Point",
                "coordinates": [
                    121.258071,
                    24.968082
                ]
            }
        },
        {
            "type": "Feature",
            "properties": {
                "code": "33202207070001",
                "name": "私立才華文理短期補習班",
                "county": "桃園市",
                "class": "文理類,外語類,",
                "students": "國中,國小"
            },
            "geometry": {
                "type": "Point",
                "coordinates": [
                    121.373058,
                    25.055813
                ]
            }
        },
        {
            "type": "Feature",
            "properties": {
                "code": "33202207210001",
                "name": "私立儀傑美術數學技藝文理短期補習班",
                "county": "桃園市",
                "class": "文理類,美術、書法、攝影、美工設計、圍棋類,",
                "students": "國小,國中,高中"
            },
            "geometry": {
                "type": "Point",
                "coordinates": [
                    121.298266,
                    25.050471
                ]
            }
        },
        {
            "type": "Feature",
            "properties": {
                "code": "33202207290001",
                "name": "赫連電腦有限公司附設私立赫連技藝短期補習班",
                "county": "桃園市",
                "class": "資訊類,美術、書法、攝影、美工設計、圍棋類,其他類,",
                "students": "成人(18歲以上)"
            },
            "geometry": {
                "type": "Point",
                "coordinates": [
                    121.224391,
                    24.955843
                ]
            }
        },
        {
            "type": "Feature",
            "properties": {
                "code": "33202208170001",
                "name": "極合教育科技股份有限公司附設私立極上一對一桃中文理短期補習班",
                "county": "桃園市",
                "class": "文理類,",
                "students": "國中,高中"
            },
            "geometry": {
                "type": "Point",
                "coordinates": [
                    121.299722,
                    25.013107
                ]
            }
        },
        {
            "type": "Feature",
            "properties": {
                "code": "33202208170002",
                "name": "私立乖乖文理技藝短期補習班",
                "county": "桃園市",
                "class": "文理類,外語類,美術、書法、攝影、美工設計、圍棋類,",
                "students": "國小,成人(18歲以上)"
            },
            "geometry": {
                "type": "Point",
                "coordinates": [
                    121.251968,
                    24.987031
                ]
            }
        },
        {
            "type": "Feature",
            "properties": {
                "code": "33202208190001",
                "name": "私立草新文理短期補習班",
                "county": "桃園市",
                "class": "文理類,外語類,",
                "students": "國小,國中"
            },
            "geometry": {
                "type": "Point",
                "coordinates": [
                    121.142681,
                    25.04549
                ]
            }
        },
        {
            "type": "Feature",
            "properties": {
                "code": "33202208190002",
                "name": "私立愛苙薇文理短期補習班",
                "county": "桃園市",
                "class": "外語類,",
                "students": "國小"
            },
            "geometry": {
                "type": "Point",
                "coordinates": [
                    121.227019,
                    24.944084
                ]
            }
        },
        {
            "type": "Feature",
            "properties": {
                "code": "33202208190003",
                "name": "私立真藝技藝短期補習班",
                "county": "桃園市",
                "class": "美術、書法、攝影、美工設計、圍棋類,",
                "students": "成人(18歲以上)"
            },
            "geometry": {
                "type": "Point",
                "coordinates": [
                    121.225542,
                    24.957543
                ]
            }
        },
        {
            "type": "Feature",
            "properties": {
                "code": "33202208220001",
                "name": "私立築誠文理短期補習班",
                "county": "桃園市",
                "class": "文理類,",
                "students": "高中"
            },
            "geometry": {
                "type": "Point",
                "coordinates": [
                    121.226435,
                    24.955347
                ]
            }
        },
        {
            "type": "Feature",
            "properties": {
                "code": "33202208230001",
                "name": "私立奧首華文理短期補習班",
                "county": "桃園市",
                "class": "文理類,",
                "students": "國小"
            },
            "geometry": {
                "type": "Point",
                "coordinates": [
                    121.315837,
                    25.018863
                ]
            }
        },
        {
            "type": "Feature",
            "properties": {
                "code": "33202209010001",
                "name": "私立自強桃一文理短期補習班",
                "county": "桃園市",
                "class": "文理類,",
                "students": "高中"
            },
            "geometry": {
                "type": "Point",
                "coordinates": [
                    121.311935,
                    24.99244
                ]
            }
        },
        {
            "type": "Feature",
            "properties": {
                "code": "33202209270001",
                "name": "私立興儒文理短期補習班藝文分班",
                "county": "桃園市",
                "class": "文理類,外語類,其他類,",
                "students": "國小,高中,國中"
            },
            "geometry": {
                "type": "Point",
                "coordinates": [
                    121.302188,
                    25.013426
                ]
            }
        },
        {
            "type": "Feature",
            "properties": {
                "code": "33202209270002",
                "name": "私立興儒文理短期補習班市府二分班",
                "county": "桃園市",
                "class": "文理類,外語類,其他類,",
                "students": "國小,國中,高中"
            },
            "geometry": {
                "type": "Point",
                "coordinates": [
                    121.302263,
                    24.990804
                ]
            }
        },
        {
            "type": "Feature",
            "properties": {
                "code": "33202209270003",
                "name": "私立李紹陽西門文理短期補習班",
                "county": "桃園市",
                "class": "文理類,外語類,其他類,",
                "students": "國小,國中,高中"
            },
            "geometry": {
                "type": "Point",
                "coordinates": [
                    121.304077,
                    24.9923
                ]
            }
        },
        {
            "type": "Feature",
            "properties": {
                "code": "33202209270004",
                "name": "私立皮克西文理技藝短期補習班",
                "county": "桃園市",
                "class": "文理類,音樂、舞蹈類,美術、書法、攝影、美工設計、圍棋類,",
                "students": "國小,國中,高中,成人(18歲以上)"
            },
            "geometry": {
                "type": "Point",
                "coordinates": [
                    121.288836,
                    24.997116
                ]
            }
        },
        {
            "type": "Feature",
            "properties": {
                "code": "33202210210001",
                "name": "私立遊牧文理短期補習班",
                "county": "桃園市",
                "class": "文理類,",
                "students": "國小,國中,高中"
            },
            "geometry": {
                "type": "Point",
                "coordinates": [
                    121.299367,
                    25.022071
                ]
            }
        },
        {
            "type": "Feature",
            "properties": {
                "code": "33202210210002",
                "name": "私立貝兒語文文理短期補習班",
                "county": "桃園市",
                "class": "外語類,",
                "students": "國小"
            },
            "geometry": {
                "type": "Point",
                "coordinates": [
                    121.288936,
                    24.998245
                ]
            }
        },
        {
            "type": "Feature",
            "properties": {
                "code": "33202211110001",
                "name": "私立有形有色文理技藝短期補習班",
                "county": "桃園市",
                "class": "文理類,外語類,美術、書法、攝影、美工設計、圍棋類,",
                "students": "小一至成人,國小,國中"
            },
            "geometry": {
                "type": "Point",
                "coordinates": [
                    121.384382,
                    25.055438
                ]
            }
        },
        {
            "type": "Feature",
            "properties": {
                "code": "33202211140001",
                "name": "私立等等插畫技藝文理短期補習班",
                "county": "桃園市",
                "class": "文理類,美術、書法、攝影、美工設計、圍棋類,",
                "students": "國小,高中,成人(18歲以上),國中"
            },
            "geometry": {
                "type": "Point",
                "coordinates": [
                    121.301367,
                    25.051096
                ]
            }
        },
        {
            "type": "Feature",
            "properties": {
                "code": "33202211240001",
                "name": "私立愛玩藝翻轉教室技藝文理短期補習班",
                "county": "桃園市",
                "class": "文理類,外語類,美術、書法、攝影、美工設計、圍棋類,",
                "students": "國小"
            },
            "geometry": {
                "type": "Point",
                "coordinates": [
                    121.207926,
                    25.001756
                ]
            }
        },
        {
            "type": "Feature",
            "properties": {
                "code": "33202212010001",
                "name": "私立興儒文理短期補習班埔心分班",
                "county": "桃園市",
                "class": "文理類,",
                "students": "國小,國中,高中"
            },
            "geometry": {
                "type": "Point",
                "coordinates": [
                    121.178505,
                    24.90778
                ]
            }
        },
        {
            "type": "Feature",
            "properties": {
                "code": "33202212080001",
                "name": "私立菲比斯文理短期補習班",
                "county": "桃園市",
                "class": "文理類,",
                "students": "國小,國中"
            },
            "geometry": {
                "type": "Point",
                "coordinates": [
                    121.168819,
                    24.960183
                ]
            }
        },